f_location,latitude,longitude,location
"463 Great South Road, ¨­t¨¡huhu, Auckland,NewZealand",-36.9451221,174.8447991,"463 Great South Road, Ōtāhuhu, Auckland 1062, New Zealand"
"26 Main Road, Katikati,NewZealand",-37.5528769,175.9173581,"26 Main Road, Katikati 3129, New Zealand"
"51 Tongariro Street, Taup¨­,NewZealand",-38.6874235,176.0697052,"51 Tongariro Street, Taupō 3330, New Zealand"
"72 East Coast Road, Milford, Auckland,NewZealand",-36.7687046,174.7580553,"72 East Coast Road, Milford, Auckland 0620, New Zealand"
"445 Ferguson Street, Palmerston North,NewZealand",-40.356509,175.619433,"445 Ferguson Street, Palmerston North Central, Palmerston North 4410, New Zealand"
"755 Main North Road Belfast, Christchurch,NewZealand",-43.4482763,172.6297487,"755 Main North Road, Belfast, Christchurch 8051, New Zealand"
"93 Bader Drive, M¨¡ngere, Auckland,NewZealand",-36.9691884,174.800108,"93 Bader Drive, Māngere, Auckland 2022, New Zealand"
"16 Francis Street, Blenheim,NewZealand",-41.5172837,173.957686,"16 Francis Street, Blenheim Central, Blenheim 7201, New Zealand"
"45/47 Picton Street, Howick, Auckland,NewZealand",-36.8937248,174.9308673,"45/47 Picton Street, Howick, Auckland 2014, New Zealand"
"20 Victoria Road, Devonport, Auckland,NewZealand",-36.830045,174.7980819,"20 Victoria Road, Devonport, Auckland 0624, New Zealand"
"19 Grant Road, Frankton, Queenstown,NewZealand",-45.0123343,168.7430938,"19 Grant Road, Frankton, Queenstown 9300, New Zealand"
"152 Bath Street, Levin,NewZealand",-40.6261348,175.2901669,"152 Bath Street, Levin 5510, New Zealand"
"Not found address,NewZealand",-40.900557,174.885971,New Zealand
"Wellsford COVID-19 Clinic, 72 School Road, Wellsford,NewZealand",-36.2837311,174.5131599,"72 School Road, Wellsford 0900, New Zealand"
"132-136 Queen Street, Masterton,NewZealand",-40.9498752,175.6612275,"132-136 Queen Street, Kuripuni, Masterton 5810, New Zealand"
"163A Onehunga Mall, Onehunga, Auckland,NewZealand",-36.9234489,174.785712,"163A Onehunga Mall, Onehunga, Auckland 1061, New Zealand"
"4 Williams Road, Paihia,NewZealand",-35.2822897,174.0913115,"4 Williams Road, Paihia 0200, New Zealand"
"544 Memorial Avenue, Christchurch Airport, Christchurch,NewZealand",-43.4909458,172.5477083,"544 Memorial Avenue, Christchurch Airport, Christchurch 8053, New Zealand"
"189 Main Road, Tawa, Wellington,NewZealand",-41.1697134,174.8246032,"189 Main Road, Tawa, Wellington 5028, New Zealand"
"570 Whangaparaoa Road, Stanmore Bay, Whangapar¨¡oa,NewZealand",-36.6283161,174.7314728,"570 Whangaparaoa Road, Stanmore Bay, Whangaparāoa 0932, New Zealand"
"13 Princes Street, ¨­t¨¡huhu, Auckland,NewZealand",-36.9410603,174.8423773,"13 Princes Street, Ōtāhuhu, Auckland 1062, New Zealand"
"65 St George Street, Papatoetoe, Auckland,NewZealand",-36.9802208,174.8533724,"65 Saint George Street, Papatoetoe, Auckland 2025, New Zealand"
"82 Main Street, Huntly,NewZealand",-37.557886,175.1585291,"82 Main Street, Huntly 3700, New Zealand"
"102 The Runway, Wigram, Christchurch,NewZealand",-43.55281,172.5571238,"102 The Runway, Wigram, Christchurch 8042, New Zealand"
"Ng¨¡ Hau E Wh¨¡ Marae, 250 Pages Road, Wainoni,NewZealand",-43.5176316,172.6862801,"Wainoni, Christchurch, New Zealand"
"Shore City, 52-56 Anzac Street, Takapuna, Auckland,NewZealand",-36.7878715,174.7699988,"52/56 Anzac Street, Takapuna, Auckland 0622, New Zealand"
"280 Queen Street, Auckland Central,NewZealand",-36.8504707,174.7649277,"280 Queen Street, Auckland CBD, Auckland 1010, New Zealand"
"Rangiora - Tauranga Moana, Fraser Cove Shopping Centre, 219-261 Fraser Street, Tauranga (between Postie Plus and Baby City),NewZealand",-37.7118465,176.1512594,"219/261 Fraser Street, Tauranga South, Tauranga 3112, New Zealand"
"216 Queen Street, Richmond,NewZealand",-41.3402222,173.186093,"216 Queen Street, Richmond 7020, New Zealand"
"855 East Coast Road, Northcross, Auckland,NewZealand",-36.709544,174.7282876,"855 East Coast Road, Northcross, Auckland 0630, New Zealand"
"229D State Highway 2, Bethlehem, Tauranga,NewZealand",-37.696195,176.1099542,"229D State Highway 2, Bethlehem, Tauranga 3110, New Zealand"
"66 Clyde Road, Browns Bay, Auckland,NewZealand",-36.714647,174.7479827,"66 Clyde Road, Browns Bay, Auckland 0630, New Zealand"
"600 Heretaunga Street West, Saint Leonards, Hastings,NewZealand",-39.6369288,176.8375557,"600 Heretaunga Street West, St Leonards, Hastings 4120, New Zealand"
"230 Great South Road, Papatoetoe, Auckland,NewZealand",-36.9705079,174.8620461,"230 Great South Road, Papatoetoe, Auckland 2025, New Zealand"
"7 Wesley Street, Pukekohe,NewZealand",-37.2017804,174.9023068,"7 Wesley Street, Pukekohe 2120, New Zealand"
"277 East T¨¡maki Road, ¨­tara, Auckland,NewZealand",-36.9609587,174.8879853,"277 East Tamaki Road, Ōtara, Auckland 2023, New Zealand"
"Not found address,NewZealand",-40.900557,174.885971,New Zealand
"Totara Health, 1 McCrae Way, New Lynn, Auckland,NewZealand",-36.9087783,174.6839328,"1 McCrae Way, New Lynn, Auckland 0600, New Zealand"
"4 Moxham Avenue, Hataitai, Wellington,NewZealand",-41.3043178,174.7937811,"4 Moxham Avenue, Hataitai, Wellington 6021, New Zealand"
"237A High Street, Rangiora,NewZealand",-43.304131,172.5919847,"237A High Street, Rangiora 7400, New Zealand"
"445 Queen Street, Kuripuni, Masterton,NewZealand",-40.958482,175.6482704,"445 Queen Street, Kuripuni, Masterton 5810, New Zealand"
"23 Jesmond Street, Ng¨¡ruaw¨¡hia,NewZealand",-40.900557,174.885971,New Zealand
"31 Highbrook Drive, East T¨¡maki, Auckland,NewZealand",-36.93653390000001,174.8801223,"31 Highbrook Drive, East Tāmaki, Auckland 2013, New Zealand"
"84A Titirangi Road, New Lynn, Auckland,NewZealand",-36.9144985,174.6712403,"84A Titirangi Road, New Lynn, Auckland 0600, New Zealand"
"94 King Street, Temuka,NewZealand",-44.24455150000001,171.2778509,"94 King Street, Temuka 7920, New Zealand"
"11 Tahunanui Drive, Tahunanui, Nelson,NewZealand",-41.2811536,173.249675,"11 Tahunanui Drive, Tāhunanui, Nelson 7011, New Zealand"
"4 Te Puna Road, Te Puna,NewZealand",-37.6954299,176.0731788,"4 Te Puna Road, Te Puna 3174, New Zealand"
"66 Moore Street, Hillcrest, Auckland,NewZealand",-36.7991647,174.7305113,"66 Moore Street, Hillcrest, Auckland 0627, New Zealand"
"Murchison Vaccination Centre, 58 Hotham Street, Murchison,NewZealand",-41.8058201,172.326017,"58 Hotham Street, Murchison 7007, New Zealand"
"11 Parnwell Street, Burwood, Christchurch,NewZealand",-43.49538159999999,172.6884131,"11 Parnwell Street, Burwood, Christchurch 8083, New Zealand"
"445 Richardson Road, Mt Roskill, Auckland,NewZealand",-36.9130626,174.7280385,"445 Richardson Road, Mount Roskill, Auckland 1041, New Zealand"
"30 Lincoln Road, Hillmorton, Christchurch,NewZealand",-43.5527248,172.5968222,"30 Lincoln Road, Hillmorton, Christchurch 8024, New Zealand"
"14 Beale Street, Hamilton East, Hamilton,NewZealand",-37.7896647,175.2922592,"14 Beale Street, Hamilton East, Hamilton 3216, New Zealand"
"51 Main Street, ¨­taki,NewZealand",-40.7527312,175.1393285,"51 Main Street, Ōtaki 5512, New Zealand"
"215 Massey Road, M¨¡ngere East, Auckland,NewZealand",-36.9567364,174.8338618,"215 Massey Road, Favona, Auckland 2024, New Zealand"
"75 Picton Street, Howick, Auckland,NewZealand",-36.8941927,174.9316268,"75 Picton Street, Howick, Auckland 2014, New Zealand"
"53B Rawhiti Road, Manly, Whangapar¨¡oa,NewZealand",-36.6314707,174.7634617,"53B Rawhiti Road, Manly, Whangaparāoa 0930, New Zealand"
"NorthWest Shopping Centre, 7 Fred Taylor Drive, Massey, Auckland,NewZealand",-36.8178005,174.6110421,"1/7 Fred Taylor Drive, Massey, Auckland 0814, New Zealand"
"31 Hukanui Road, Fairfield, Hamilton,NewZealand",-37.7618292,175.2869784,"31 Hukanui Road, Fairfield, Hamilton 3214, New Zealand"
"Corner Edsel Street and Catherine Street, Henderson,NewZealand",-36.88179300000001,174.6329096,"Catherine St & Edsel St, Henderson, Auckland 0612, New Zealand"
"Eastcare, 260 Botany Road, Golflands, Auckland,NewZealand",-36.9224761,174.9134205,"260 Botany Road, Golflands, Auckland 2013, New Zealand"
"92 De Lautour Road, Inner Kaiti, Gisborne,NewZealand",-38.6686276,178.0478638,"92 De Lautour Road, Inner Kaiti, Gisborne 4010, New Zealand"
"289 Broadway, Stratford,NewZealand",-39.3402184,174.2847319,"289 Broadway, Stratford 4710, New Zealand"
"1 Ara Tai Road, Half Moon Bay, Auckland,NewZealand",-36.8811126,174.899861,"1 Ara-Tai Road, Half Moon Bay, Auckland 2012, New Zealand"
"3 Patteson Avenue, Mission Bay, Auckland,NewZealand",-36.8485693,174.8315182,"3 Patteson Avenue, Mission Bay, Auckland 1071, New Zealand"
"307 St Aubyn Street West, Hastings,NewZealand",-39.6371861,176.8440337,"307 Saint Aubyn Street West, Hastings 4122, New Zealand"
"17 Wakefield Avenue, Sumner, Christchurch,NewZealand",-43.56937019999999,172.7597957,"17 Wakefield Avenue, Sumner, Christchurch 8081, New Zealand"
"135 Witako Street, Epuni, Lower Hutt,NewZealand",-41.2054021,174.9277646,"135 Witako Street, Epuni, Lower Hutt 5011, New Zealand"
"225 Onewa Road, Birkenhead, Auckland,NewZealand",-36.8097946,174.7272096,"225 Onewa Road, Birkenhead, Auckland 0626, New Zealand"
"22 Stoddard Road, Mount Roskill, Auckland,NewZealand",-36.90733,174.7336455,"22 Stoddard Road, Wesley, Auckland 1041, New Zealand"
"Not found address,NewZealand",-40.900557,174.885971,New Zealand
"Not found address,NewZealand",-40.900557,174.885971,New Zealand
"2 Rosemont Road, Waihi,NewZealand",-37.3916421,175.840343,"2 Rosemont Road, Waihi 3610, New Zealand"
"408 Titirangi Road, Titirangi, Auckland,NewZealand",-36.9379098,174.6566027,"408 Titirangi Road, Titirangi, Auckland 0604, New Zealand"
"42 Oxford Street, Richmond,NewZealand",-41.3403827,173.1843893,"42 Oxford Street, Richmond 7020, New Zealand"
"173 Anglesea Street, Hamilton,NewZealand",-37.791489,175.2827958,"173 Anglesea Street, Hamilton Central, Hamilton 3204, New Zealand"
"53 Main Street, Upper Hutt,NewZealand",-41.1244944,175.0680311,"53 Main Street, Upper Hutt Central, Upper Hutt 5018, New Zealand"
"10 Aylesbury Street, Pakuranga, Auckland,NewZealand",-36.91331350000001,174.8712569,"10 Aylesbury Street, Pakuranga, Auckland 2010, New Zealand"
"51-57 Fifteenth Avenue, Tauranga South, Tauranga,NewZealand",-37.709349,176.163567,"51 Fifteenth Avenue, Tauranga South, Tauranga 3112, New Zealand"
"Manukau Supa Centa, Cnr Lambie & Cavendish Drives, Manukau, Auckland,NewZealand",-36.99164,174.8714373,"Corner Lambie &, Cavendish Drive, Manukau City Centre, Auckland 2104, New Zealand"
"7E Factory Road, Waimauku,NewZealand",-36.767531,174.494553,"7E Factory Road, Waimauku 0812, New Zealand"
"T¨¡maki Health Hub, 75 Felton Mathew Avenue, Saint Johns, Auckland,NewZealand",-36.8763557,174.8512006,"75 Felton Mathew Avenue, St Johns, Auckland 1072, New Zealand"
"42 Girven Road, Mount Maunganui,NewZealand",-37.6745604,176.2277994,"42 Girven Road, Mount Maunganui 3116, New Zealand"
"Cnr Madras Street & Moorhouse Avenue, Christchurch,NewZealand",-43.5398504,172.6427217,"Moorhouse Ave & Madras St, Sydenham, Christchurch 8011, New Zealand"
"240-242 Jackson Street, Petone, Lower Hutt,NewZealand",-41.2253838,174.878295,"240 Jackson Street, Petone, Lower Hutt 5012, New Zealand"
"205 Great South Road, Greenlane, Auckland,NewZealand",-36.8904651,174.7936882,"205 Great South Road, Greenlane, Auckland 1051, New Zealand"
"6 High Street, Picton,NewZealand",-41.28898969999999,174.0071085,"6 High Street, Picton 7220, New Zealand"
"Westcity Waitakere, 7 Catherine Street, Henderson, Auckland,NewZealand",-36.8809739,174.6327652,"7 Catherine Street, Henderson, Auckland 0612, New Zealand"
"4/39 Whatawhata Road, Hamilton,NewZealand",-37.7955607,175.2458446,"4/39 Whatawhata Road, Dinsdale, Hamilton 3204, New Zealand"
"115 Church Street, ¨­t¨¡huhu, Auckland,NewZealand",-36.9444773,174.8463469,"115 Church Street, Ōtāhuhu, Auckland 1062, New Zealand"
"96 Jellicoe Street, Te Puke,NewZealand",-37.7843801,176.3275975,"96 Jellicoe Street, Te Puke 3119, New Zealand"
"463 Lake Road, Takapuna, Auckland,NewZealand",-36.7898563,174.7725683,"463 Lake Road, Takapuna, Auckland 0622, New Zealand"
"131 Lincoln Road, Henderson, Auckland,NewZealand",-36.86428069999999,174.6294233,"131 Lincoln Road, Henderson, Auckland 0610, New Zealand"
"179 High Street, Motueka,NewZealand",-41.1117345,173.0113171,"179 High Street, Motueka 7120, New Zealand"
"Ng¨¡ti Hine Health Trust, 2-4 Rayner Street, Kawakawa,NewZealand",-35.3789483,174.0636279,"2-4 Rayner Street, Kawakawa 0210, New Zealand"
"Mt Wellington Shopping Centre, 295 Penrose Road, Mount Wellington, Auckland,NewZealand",-36.9090808,174.8374863,"295 Penrose Road, Mount Wellington, Auckland 1060, New Zealand"
"Lynnmall Shopping Centre, 3058 Great North Road, New Lynn, Auckland,NewZealand",-36.9076512,174.6859924,"3058 Great North Road, New Lynn, Auckland 0640, New Zealand"
"18 Manukau Station Road, Manukau, Auckland,NewZealand",-36.993407,174.8824809,"18 Manukau Station Road, Manukau City Centre, Auckland 2104, New Zealand"
"104 Main Street, Gore,NewZealand",-46.10134069999999,168.9438734,"104 Main Street, Gore 9710, New Zealand"
"146 Sunnynook Road, Sunnynook, Auckland,NewZealand",-36.7606075,174.7396035,"146 Sunnynook Road, Sunnynook, Auckland 0620, New Zealand"
"521A Kamo Road, Kamo, Whang¨¡rei,NewZealand",-35.6833213,174.3006819,"521A Kamo Road, Kamo, Whangārei 0112, New Zealand"
"65 Victoria Street, H¨¡wera,NewZealand",-39.5872979,174.2804252,"65 Victoria Street, Hāwera 4610, New Zealand"
"1073 COLOMBO STREET, ST ALBANS, CHRISTCHURCH,NewZealand",-43.5135873,172.6364003,"1073 Colombo Street, St Albans, Christchurch 8014, New Zealand"
"281 College Street, West End, Palmerston North,NewZealand",-40.3660107,175.6069971,"281 College Street, West End, Palmerston North 4412, New Zealand"
"71 High Street, Hutt Central, Lower Hutt,NewZealand",-41.210691,174.900233,"71 High Street, Hutt Central, Lower Hutt 5010, New Zealand"
"Bethlehem Town Centre, 19 Bethlehem Road, Bethlehem, Tauranga,NewZealand",-37.6935968,176.1090236,"19 Bethlehem Road, Bethlehem, Tauranga 3110, New Zealand"
"123 Dominion Road, Mt Eden, Auckland,NewZealand",-36.8725812,174.7518844,"123 Dominion Road, Mount Eden, Auckland 1024, New Zealand"
"320 Remuera Road, Remuera, Auckland,NewZealand",-36.8803869,174.7965045,"320 Remuera Road, Remuera, Auckland 1050, New Zealand"
"13 Kakamutu Road, ¨­torohanga,NewZealand",-38.1810756,175.2104708,"13 Kakamutu Road, Otorohanga 3900, New Zealand"
"2 Montel Avenue, Henderson, Auckland,NewZealand",-36.8809756,174.6378598,"2 Montel Avenue, Henderson, Auckland 0612, New Zealand"
"Westfield Manukau City, Cnr Great South and Wiri Station Roads, Manukau, Auckland,NewZealand",-36.9989697,174.8735693,"Wiri Station Road, Manukau City Centre, Auckland 2104, New Zealand"
"226 West Coast Road, Glen Eden, Auckland,NewZealand",-36.9104487,174.65177,"226 West Coast Road, Glen Eden, Auckland 0602, New Zealand"
"2 Fencible Drive, Howick, Auckland,NewZealand",-36.894456,174.9303749,"2 Fencible Drive, Howick, Auckland 2014, New Zealand"
"28 Te Rangitautahanga Road, T¨±rangi,NewZealand",-38.9879547,175.807231,"28 Te Rangitautahanga Road, Tūrangi 3334, New Zealand"
"225 Great South Road, ¨­t¨¡huhu, Auckland,NewZealand",-36.9410921,174.8403077,"225 Great South Road, Ōtāhuhu, Auckland 1062, New Zealand"
"88 Main Road, Kume¨±, Auckland,NewZealand",-36.775803,174.5560805,"88 Main Road, Kumeū 0810, New Zealand"
"61 Devine Road, Tamahere, Hamilton,NewZealand",-37.8290179,175.3540166,"61 Devine Road, Tamahere 3283, New Zealand"
"¨­p¨­tiki Community Health Centre, 32A King Street, ¨­p¨­tiki,NewZealand",-40.900557,174.885971,New Zealand
"22 Kawakawa-Orere Road, Kawakawa Bay,NewZealand",-36.950419,175.1706384,"22 Kawakawa-Orere Road, Kawakawa Bay 2585, New Zealand"
"10A Pukete Road, Saint Andrews, Hamilton,NewZealand",-37.7506855,175.2412412,"10A Pukete Road, St Andrews, Hamilton 3200, New Zealand"
"1/5 Raroa Road, Hutt Central, Lower Hutt,NewZealand",-41.20706939999999,174.9089715,"1/5 Raroa Road, Hutt Central, Lower Hutt 5010, New Zealand"
"Clendon Shopping Centre, Roscommon Road, Clendon Park, Auckland,NewZealand",-37.0327274,174.8680019,"Roscommon Road, Clendon Park, Auckland 2103, New Zealand"
"110 Church Street, ¨­p¨­tiki,NewZealand",-40.900557,174.885971,New Zealand
"Apollo Health & Wellness, 119 Apollo Drive, Rosedale, Auckland,NewZealand",-36.735343,174.7269749,"119 Apollo Drive, Albany, Auckland 0632, New Zealand"
"338 Pages Road, Aranui, Christchurch,NewZealand",-43.517545,172.7023805,"338 Pages Road, Aranui, Christchurch 8061, New Zealand"
"215 Queen Street, Richmond,NewZealand",-41.33989469999999,173.1850382,"215 Queen Street, Richmond 7020, New Zealand"
"Queensgate Shopping Centre, Cnr Queens Drive and Bunny Street, Lower Hutt,NewZealand",-41.2099569,174.9064448,"Cnr Queens Drive and, Bunny Street, Hutt Central, Wellington 5011, New Zealand"
"96 College Street, Awapuni, Palmerston North,NewZealand",-40.3735712,175.5922595,"96 College Street, Awapuni, Palmerston North 4412, New Zealand"
"36 Maratahu Street, Westown, New Plymouth,NewZealand",-39.0691836,174.068915,"36 Maratahu Street, Westown, New Plymouth 4310, New Zealand"
"91 Centaurus Road, Huntsbury, Christchurch,NewZealand",-43.5668014,172.6467652,"91 Centaurus Road, Huntsbury, Christchurch 8022, New Zealand"
"27-29 Albany Street, North Dunedin, Dunedin,NewZealand",-45.8660923,170.5087438,"27 Albany Street, Dunedin North, Dunedin 9016, New Zealand"
"69 High Street, Bulls,NewZealand",-40.1739687,175.3863956,"69 High Street, Bulls 4818, New Zealand"
"597 Great South Road, Manukau, Auckland,NewZealand",-36.9841934,174.878494,"597 Great South Road, Manukau City Centre, Auckland 2104, New Zealand"
"61 Jellicoe Street, Te Puke,NewZealand",-37.7853811,176.328367,"61 Jellicoe Street, Te Puke 3119, New Zealand"
"Anglesea Medical Complex - Gate 2, 9 Thackeray Street, Hamilton,NewZealand",-37.7921903,175.2823968,"2/9 Thackeray Street, Hamilton Central, Hamilton 3204, New Zealand"
"Unichem Kilbirnie Pharmacy, 37 Bay Road, Kilbirnie, Wellington,NewZealand",-41.3189946,174.7950448,"37 Bay Road, Kilbirnie, Wellington 6022, New Zealand"
"Westgate Shopping Centre, 1-5 Fernhill Drive, Westgate, Auckland,NewZealand",-36.8213672,174.6123723,"Fred Taylor Drive, Westgate, Auckland 0657, New Zealand"
"19 Girven Road, Bayfair,NewZealand",-37.6750439,176.2238002,"19 Girven Road, Mount Maunganui 3116, New Zealand"
"Westcity Waitakere, 7 Catherine Street, Henderson, Auckland,NewZealand",-36.8809739,174.6327652,"7 Catherine Street, Henderson, Auckland 0612, New Zealand"
"149 Kirkbride Road, M¨¡ngere, Auckland,NewZealand",-36.9701721,174.7853086,"149 Kirkbride Road, Māngere, Auckland 2022, New Zealand"
"Cnr Tristram Street and Rostrevor Street, Hamilton Central, Hamilton,NewZealand",-37.7825574,175.2757888,"Rostrevor Street, Hamilton Central, Hamilton 3204, New Zealand"
"27-35 Queen St, Warkworth,NewZealand",-36.3976205,174.6642742,"Level 1/35 Queen Street, Warkworth 0910, New Zealand"
"723 Fergusson Drive, Elderslea, Upper Hutt,NewZealand",-41.125481,175.0583454,"723 Fergusson Drive, Elderslea, Upper Hutt 5018, New Zealand"
"Cnr Rees Street & The Mall, Queenstown, Otago,NewZealand",-45.0321347,168.659528,"Rees Street, Queenstown 9300, New Zealand"
"Te Rito, Whanganui Hospital Gate One, 100 Heads Road, Whanganui,NewZealand",-39.9440257,175.0377248,"100 Heads Road, Gonville, Whanganui 4501, New Zealand"
"372 Rosedale Road, Rosedale, Auckland,NewZealand",-36.7428801,174.695998,"372 Rosedale Road, Rosedale, Auckland 0632, New Zealand"
"Totara Health, 1 McCrae Way, New Lynn, Auckland,NewZealand",-36.9087783,174.6839328,"1 McCrae Way, New Lynn, Auckland 0600, New Zealand"
"435 Khyber Pass Road, Auckland,NewZealand",-36.86728280000001,174.7757205,"435 Khyber Pass Road, Newmarket, Auckland 1023, New Zealand"
"1b Ngawaka Lane, One Tree Point,NewZealand",-35.8394589,174.4660953,"1B Ngawaka Lane, One Tree Point 0118, New Zealand"
"Botany Town Centre, 588 Chapel Road, East T¨¡maki, Auckland,NewZealand",-36.9334926,174.9133753,"588 Chapel Road, East Tāmaki, Auckland 2016, New Zealand"
"St Lukes Westfield Centre, 80 St Lukes Road, Mt Albert, Auckland,NewZealand",-36.8828849,174.7331998,"80 Saint Lukes Road, Mount Albert, Auckland 1025, New Zealand"
"125 High Street, Motueka,NewZealand",-41.1103661,173.0113923,"125 High Street, Motueka 7120, New Zealand"
"43-45 Pine Drive, Murupara,NewZealand",-38.4568752,176.7048253,"43 Pine Drive, Murupara 3025, New Zealand"
"Palmerston North Central Vaccination Centre, 38 Fitzherbert Avenue, Palmerston North,NewZealand",-40.3581297,175.612414,"38 Fitzherbert Avenue, Palmerston North Central, Palmerston North 4410, New Zealand"
"31A Bartley Terrace, Devonport, Auckland,NewZealand",-36.8298147,174.7960947,"31A Bartley Terrace, Devonport, Auckland 0624, New Zealand"
"1913 Cambridge Road, Cambridge,NewZealand",-37.8892421,175.4538553,"1913 Cambridge Road, Cambridge 3434, New Zealand"
"30 Walters Road, Takanini,NewZealand",-37.0483615,174.9321823,"30 Walters Road, Takanini 2112, New Zealand"
"3 Filly Place, Yaldhurst, Christchurch,NewZealand",-43.51896139999999,172.5253203,"3 Filly Place, Yaldhurst, Christchurch 8042, New Zealand"
"Poutiri Wellness Centre (PWC) 35 Commerce Lane, Te Puke,NewZealand",-37.7842547,176.3283958,"35 Commerce Lane, Te Puke 3119, New Zealand"
"Not found address,NewZealand",-40.900557,174.885971,New Zealand
"58 Willis Street, Wellington Central, Wellington,NewZealand",-41.2876888,174.7753656,"58 Willis Street, Wellington Central, Wellington 6011, New Zealand"
"1007 Heaphy Terrace, Fairfield, Hamilton,NewZealand",-37.7715692,175.2825904,"1007 Heaphy Terrace, Fairfield, Hamilton 3214, New Zealand"
"17 Adelaide Road, Mount Cook, Wellington,NewZealand",-41.30194119999999,174.7797809,"17 Adelaide Road, Mount Cook, Wellington 6021, New Zealand"
"92 Spey Street, Invercargill,NewZealand",-46.4095427,168.3482666,"92 Spey Street, Invercargill 9810, New Zealand"
"52 St Lukes Road, Mount Albert, Auckland,NewZealand",-36.8817722,174.7315319,"52 Saint Lukes Road, Mount Albert, Auckland 1025, New Zealand"
"651 Whangaparaoa Road, Stanmore Bay, Whangapar¨¡oa,NewZealand",-36.6348998,174.7395956,"651 Whangaparaoa Road, Stanmore Bay, Whangaparāoa 0932, New Zealand"
"3/226 Great South Road, Takanini,NewZealand",-37.0480459,174.9276171,"3/226 Great South Road, Takanini 2112, New Zealand"
"17 Rust Avenue, Whang¨¡rei,NewZealand",-35.7230098,174.3168939,"17 Rust Avenue, Whangārei 0110, New Zealand"
"1248 Dominion Road, Mount Roskill, Auckland,NewZealand",-36.9034431,174.7423297,"1248 Dominion Road, Mount Roskill, Auckland 1041, New Zealand"
"192 Universal Drive, Henderson, Auckland,NewZealand",-36.8561558,174.6289979,"192 Universal Drive, Henderson, Auckland 0610, New Zealand"
"175 Queen Street, Auckland Central, Auckland,NewZealand",-36.8480901,174.7653699,"175 Queen Street, Auckland CBD, Auckland 1010, New Zealand"
"10 Aylesbury Street, Pakuranga, Auckland,NewZealand",-36.91331350000001,174.8712569,"10 Aylesbury Street, Pakuranga, Auckland 2010, New Zealand"
"4 Colombo Road, Lansdowne, Masterton,NewZealand",-40.9493859,175.6744286,"4 Colombo Road, Lansdowne, Masterton 5810, New Zealand"
"162 High Street, Motueka,NewZealand",-41.1112591,173.0108257,"162 High Street, Motueka 7120, New Zealand"
"1365 Victoria Street, Beerescourt, Hamilton,NewZealand",-37.7699935,175.2634956,"1365 Victoria Street, Beerescourt, Hamilton 3200, New Zealand"
"296A Dominion Road, Mount Eden, Auckland,NewZealand",-36.878001,174.7512623,"296A Dominion Road, Mount Eden, Auckland 1024, New Zealand"
"137 Queens Road, Panmure, Auckland,NewZealand",-36.9003755,174.8555229,"137 Queens Road, Panmure, Auckland 1072, New Zealand"
"Sylvia Park Shopping Centre, 286 Mt Wellington Highway, Mt Wellington, Auckland,NewZealand",-36.9172406,174.8418425,"286 Mount Wellington Highway, Mount Wellington, Auckland 1060, New Zealand"
"33 Victoria Road, Devonport, Auckland,NewZealand",-36.8310738,174.7971905,"33 Victoria Road, Devonport, Auckland 0624, New Zealand"
"266 Queen Street, Masterton,NewZealand",-40.9519942,175.6579941,"266 Queen Street, Masterton 5810, New Zealand"
"eastMED, 188 St Heliers Bay Road, St Heliers, Auckland,NewZealand",-36.8621032,174.8588257,"188 Saint Heliers Bay Road, St Heliers, Auckland 1071, New Zealand"
"2 Tarawera Court, Islington Street, Kawerau,NewZealand",-38.0860001,176.701246,"Islington St &, Plunket Street, Kawerau 3127, New Zealand"
"262 East Street, Ashburton,NewZealand",-43.90483039999999,171.7474485,"262 East Street, Ashburton 7700, New Zealand"
"148 Whites Line East, Waiwhetu, Lower Hutt,NewZealand",-41.2241135,174.921464,"148 Whites Line East, Waiwhetu, Lower Hutt 5010, New Zealand"
"11 Paerata Road, Pukekohe, Auckland,NewZealand",-37.1902522,174.9034214,"11 Paerata Road, Pukekohe 2120, New Zealand"
"382 Manukau Road, Epsom,NewZealand",-36.8923289,174.7748721,"382 Manukau Road, Epsom, Auckland 1344, New Zealand"
"7A/359 Massey Road, M¨¡ngere East, Auckland,NewZealand",-36.9664559,174.8250674,"7a/359 Massey Road, Māngere East, Auckland 2024, New Zealand"
"16A Bakerfield Place, Manukau, Auckland,NewZealand",-36.9887463,174.8850881,"16A Bakerfield Place, Manukau City Centre, Auckland 2104, New Zealand"
"29 Hukanui Road, Fairfield, Hamilton,NewZealand",-37.7618489,175.2872994,"29 Hukanui Road, Fairfield, Hamilton 3214, New Zealand"
"213-215 Thames Street, ¨­amaru,NewZealand",-45.096075,170.9722491,"213/215 Thames Street, Oamaru Central, Oamaru 9400, New Zealand"
"1 Grenada Avenue, Forrest Hill, Auckland,NewZealand",-36.7604749,174.7465833,"1 Grenada Avenue, Forrest Hill, Auckland 0620, New Zealand"
"The Warehouse Building, 14 Redwood Street, Blenheim,NewZealand",-41.51481099999999,173.9601564,"14 Redwood Street, Blenheim Central, Blenheim 7201, New Zealand"
"Gardens Shopping Mall, 1 North Road, North East Valley, Dunedin,NewZealand",-45.8549613,170.5188206,"1 North Road, North East Valley, Dunedin 9010, New Zealand"
"1/283 Ponsonby Road, Ponsonby, Auckland,NewZealand",-36.8482592,174.7443099,"suite 1/283 Ponsonby Road, Ponsonby, Auckland 1011, New Zealand"
"611 Dominion Road, Mount Eden, Auckland,NewZealand",-36.8894719,174.7465059,"611 Dominion Road, Mount Eden, Auckland 1041, New Zealand"
"10 Weld Street, Hokitika,NewZealand",-42.7173031,170.9625051,"10 Weld Street, Hokitika 7810, New Zealand"
"29 Hunua Road, Papakura, Auckland,NewZealand",-37.0702084,174.9591668,"29 Hunua Road, Papakura, Auckland 2110, New Zealand"
"445 Ferguson Street, Palmerston North,NewZealand",-40.356509,175.619433,"445 Ferguson Street, Palmerston North Central, Palmerston North 4410, New Zealand"
"3 Watford Street, ¨­tara, Auckland,NewZealand",-36.9621108,174.8729104,"3 Watford Street, Ōtara, Auckland 2023, New Zealand"
"Coopers Beach Shopping, 137C State Highway 10, Coopers Beach,NewZealand",-34.9916029,173.5101867,"137C State Highway 10, Coopers Beach 0420, New Zealand"
"110 Memorial Avenue, Burnside, Christchurch,NewZealand",-43.5119294,172.580221,"110 Memorial Avenue, Burnside, Christchurch 8053, New Zealand"
"Sylvia Park Shopping Centre, 286 Mt Wellington Highway, Mt Wellington, Auckland,NewZealand",-36.9172406,174.8418425,"286 Mount Wellington Highway, Mount Wellington, Auckland 1060, New Zealand"
"23 Ganges Road, Khandallah, Wellington,NewZealand",-41.24710719999999,174.7916031,"23 Ganges Road, Khandallah, Wellington 6035, New Zealand"
"¨­tara Vaccination Centre, 5 ¨­tara Road, ¨­tara,NewZealand",-40.900557,174.885971,New Zealand
"275 New Windsor Road, New Windsor, Auckland,NewZealand",-36.911177,174.7166477,"275 New Windsor Road, Blockhouse Bay, Auckland 0600, New Zealand"
"Manurewa Marae Vaccination, Testing and RATS Collection Centre, 81 Finlayson Avenue, Clendon Park, Manukau City,NewZealand",-37.0252053,174.8573225,"81 Finlayson Avenue, Clendon Park, Auckland 2103, New Zealand"
"283 Karangahape Road, Auckland Central, Auckland,NewZealand",-36.8574249,174.7580121,"283 Karangahape Road, Auckland CBD, Auckland 1010, New Zealand"
"232 Gladstone Road, Gisborne,NewZealand",-38.6642964,178.0227458,"232 Gladstone Road, Gisborne 4010, New Zealand"
"288 Te Atatu Road, Te Atat¨± South, Auckland,NewZealand",-36.8629792,174.6482405,"288 Te Atatu Road, Te Atatū South, Auckland 0610, New Zealand"
"1 Pearn Place, Northcote, Auckland,NewZealand",-36.8015778,174.7456102,"1 Pearn Place, Northcote, Auckland 0627, New Zealand"
"32B George Street, Tuakau,NewZealand",-37.2578706,174.9467011,"32B George Street, Tuakau 2121, New Zealand"
"Burwood Hospital, Christchurch,NewZealand",-43.4803896,172.6841319,"300 Burwood Road, Burwood, Christchurch 8083, New Zealand"
"252 Welcome Bay Road, Welcome Bay, Tauranga,NewZealand",-37.7255756,176.1923398,"252 Welcome Bay Road, Welcome Bay, Tauranga 3112, New Zealand"
"221 Russell Street North, Hastings,NewZealand",-39.6406977,176.8460343,"221 Russell Street North, Hastings 4122, New Zealand"
"Hauora Heretaunga, 821 Orchard Road, Camberley, Hastings,NewZealand",-39.621517,176.8161109,"821 Orchard Road, Camberley, Hastings 4120, New Zealand"
"Tangata Atumotu Trust, 28 Bealey Avenue, Christchurch.,NewZealand",-43.5211561,172.6286736,"28 Bealey Avenue, Christchurch Central City, Christchurch 8013, New Zealand"
"1040 Beach Road, Torbay, Auckland,NewZealand",-36.6955068,174.7515391,"1040 Beach Road, Torbay, Auckland 0630, New Zealand"
"Gate 3, Tokoroa Hospital, Maraetai Road, Tokoroa,NewZealand",-38.2308294,175.8615211,"Tokoroa 3491, New Zealand"
"Coastlands Shoppingtown, State Highway 1, Paraparaumu,NewZealand",-40.9165198,175.0046935,"Coastlands Shoppingtown Ltd, State Highway 1, Paraparaumu 5032, New Zealand"
"221 Leith Place, Tokoroa,NewZealand",-38.2183708,175.8727036,"221 Leith Place, Tokoroa 3420, New Zealand"
"402 George Street, North Dunedin, Dunedin,NewZealand",-45.8678482,170.507337,"402 George Street, Dunedin North, Dunedin 9016, New Zealand"
"Not found address,NewZealand",-40.900557,174.885971,New Zealand
"280 North Road, Waikiwi, Invercargill,NewZealand",-46.3772221,168.3470346,"280 North Road, Waikiwi, Invercargill 9810, New Zealand"
"670 Cambridge Road, Te Awamutu,NewZealand",-38.0068795,175.3413356,"670 Cambridge Road, Te Awamutu 3800, New Zealand"
"159 Karori Road, Karori, Wellington,NewZealand",-41.2826601,174.7453712,"159 Karori Road, Karori, Wellington 6012, New Zealand"
"4 Lydney Place North, Porirua City Centre, Porirua,NewZealand",-41.13488780000001,174.8414292,"4 Lydney Place North, Porirua City Centre, Porirua 5022, New Zealand"
"185 Great South Road, Manurewa, Auckland,NewZealand",-37.0223894,174.8971063,"185 Great South Road, Manurewa, Auckland 2102, New Zealand"
"Meridian Mall, George Street, Dunedin Central, Dunedin,NewZealand",-45.8702316,170.5044893,"285 George Street, Central Dunedin, Dunedin 9058, New Zealand"
"19-23 Memorial Avenue, Ilam, Christchurch,NewZealand",-43.5181479,172.5878758,"19/23 Memorial Avenue, Ilam, Christchurch 8053, New Zealand"
"Timaru Medical Centre Carpark, 45 Heaton Street, Timaru,NewZealand",-44.4014248,171.2513864,"47A Heaton Street, Parkside, Timaru 7910, New Zealand"
"1158 River Road, Flagstaff, Hamilton,NewZealand",-37.7381388,175.2529463,"1158 River Road, Flagstaff, Hamilton 3210, New Zealand"
"66 Aranui Road, Mapua,NewZealand",-41.2530566,173.0956618,"66 Aranui Road, Māpua 7005, New Zealand"
"174A Kitchener Road, Milford, Auckland,NewZealand",-36.7728438,174.7652747,"174A Kitchener Road, Milford, Auckland 0620, New Zealand"
"951 Wairere Drive, Hamilton East, Hamilton,NewZealand",-37.7931111,175.3068763,"951 Wairere Drive, Hamilton East, Hamilton 3216, New Zealand"
"166 Seventeenth Avenue, Tauranga,NewZealand",-37.7051528,176.1480257,"166 17th Avenue, Tauranga South, Tauranga 3112, New Zealand"
"113 Broadway, Kaikohe,NewZealand",-35.4081116,173.7992961,"113 Broadway, Kaikohe 0405, New Zealand"
"Cnr Ti Rakau Drive & Te Irirangi Drive, Botany, Auckland,NewZealand",-36.9287974,174.9123991,"Ti Rakau Dr & Te Irirangi Dr, Golflands, Auckland 2013, New Zealand"
"8d Tamariki Avenue, ¨­rewa,NewZealand",-36.5878683,174.695239,"8D Tamariki Avenue, Orewa 0931, New Zealand"
"Ng¨¡ Miro Health Centre, 29 River Road, Ng¨¡ruaw¨¡hia,NewZealand",40.0583238,-74.4056612,"New Jersey, USA"
"575 Glenfield Road, Glenfield,NewZealand",-36.7702225,174.7221701,"575 Glenfield Road, Glenfield, Auckland 0629, New Zealand"
"Not found address,NewZealand",-40.900557,174.885971,New Zealand
"48 King Street, Pukekohe,NewZealand",-37.20048,174.9026545,"48 King Street, Pukekohe 2120, New Zealand"
"Ng¨¡ti Kahungunu ki T¨¡maki nui-a-Rua, 171-173 High Street, Dannevirke,NewZealand",-40.2077451,176.1021481,"171 High Street, Dannevirke 4930, New Zealand"
"Clive's Chemist, 20-21 Queen Street, Wainuiomata, Lower Hutt,NewZealand",-41.2607402,174.9462777,"20/21 Queen Street, Wainuiomata, Lower Hutt 5014, New Zealand"
"48 Queen St, Warkworth,NewZealand",-36.3974526,174.6639895,"48 Queen Street, Warkworth 0910, New Zealand"
"Westfield Riccarton, 129 Riccarton Road, Riccarton, Christchurch,NewZealand",-43.530833,172.5988325,"129 Riccarton Road, Riccarton, Christchurch 8041, New Zealand"
"Royal Oak Mall, 691 Manukau Road, Royal Oak, Auckland,NewZealand",-36.9103582,174.7746753,"691 Manukau Road, Royal Oak, Auckland 1023, New Zealand"
"123 Pakuranga Road, Pakuranga, Auckland,NewZealand",-36.9121161,174.870828,"123 Pakuranga Road, Pakuranga, Auckland 2010, New Zealand"
"The Hub Hornby, 418 Main South Road, Hornby, Christchurch,NewZealand",-43.5426447,172.5237601,"418 Main South Road, Hornby, Christchurch 8441, New Zealand"
"Roselands Shopping Centre, 96 Great South Rd, Papakura, Auckland,NewZealand",-37.0589692,174.9412419,"90/96 Great South Road, Papakura, Auckland 2110, New Zealand"
"105 Rora Street, Te Kuiti,NewZealand",-38.3339838,175.1649059,"105 Rora Street, Te Kuiti 3910, New Zealand"
"35 Vercoe Road, Beerescourt, Hamilton,NewZealand",-37.7650055,175.2599379,"35 Vercoe Road, Beerescourt, Hamilton 3200, New Zealand"
"113 Heuheu Street, Taup¨­,NewZealand",-38.6893146,176.0761766,"113 Te Heuheu Street, Taupō 3330, New Zealand"
"5 Sale Street, Napier South, Napier,NewZealand",-39.4977793,176.9171174,"5 Sale Street, Napier South, Napier 4110, New Zealand"
"129A Beachlands Road, Beachlands, Auckland,NewZealand",-36.889517,175.0107825,"129 Beachlands Road, Beachlands 2018, New Zealand"
"39 Rewi Street, Te Awamutu,NewZealand",-38.0092494,175.3209374,"39 Rewi Street, Te Awamutu 3800, New Zealand"
"Lynnmall Shopping Centre, 3058 Great North Road, New Lynn, Auckland,NewZealand",-36.9076512,174.6859924,"3058 Great North Road, New Lynn, Auckland 0640, New Zealand"
"Rotorua Central Mall, Amohau Street, Rotorua,NewZealand",-38.140361,176.2516633,"1170 Amohau Street, Rotorua 3010, New Zealand"
"11-13 Cortina Place, Pakuranga, Auckland,NewZealand",-36.9156621,174.8727813,"11 Cortina Place, Pakuranga, Auckland 2010, New Zealand"
"47 Vogel Street, Roslyn, Palmerston North,NewZealand",-40.33143,175.6310869,"47 Vogel Street, Roslyn, Palmerston North 4414, New Zealand"
"Lynnmall Shopping Centre, 3058 Great North Road, New Lynn, Auckland,NewZealand",-36.9076512,174.6859924,"3058 Great North Road, New Lynn, Auckland 0640, New Zealand"
"353 Karangahape Road, Auckland Central, Auckland,NewZealand",-36.8577878,174.7569096,"353 Karangahape Road, Auckland CBD, Auckland 1010, New Zealand"
"1224-1226 Dominion Road, Mount Roskill, Auckland,NewZealand",-36.9026717,174.7425532,"1224 Dominion Road, Mount Roskill, Auckland 1041, New Zealand"
"65 Queen Street, Wairoa, Hawkes Bay,NewZealand",-39.0343671,177.4205445,"65 Queen Street, Wairoa 4108, New Zealand"
"8/812 Main North Road, Belfast, Christchurch,NewZealand",-43.444837,172.6333836,"8/812 Main North Road, Belfast, Christchurch 8051, New Zealand"
"19 London Street, Lyttelton,NewZealand",-43.6027679,172.721377,"19 London Street, Lyttelton 8082, New Zealand"
"Rototuna Shopping Centre, Cnr Horsham Downs Road & Thomas Road, Rototuna North, Hamilton,NewZealand",-37.7290028,175.2740611,"Rototuna Shopping Centre, Rototuna North, Hamilton 3210, New Zealand"
"2 Market Square, East T¨¡maki, Auckland,NewZealand",-36.9336578,174.9112837,"2 Market Square, East Tāmaki, Auckland 2013, New Zealand"
"147a Otaika Road, Raumanga, Whang¨¡rei,NewZealand",-35.7427988,174.3079655,"147A Otaika Road, Raumanga, Whangārei 0110, New Zealand"
"15-17 Rouston Street, Pukekohe,NewZealand",-37.2029655,174.9050083,"15/17 Roulston Street, Pukekohe 2120, New Zealand"
"53 Devonport Road, Tauranga,NewZealand",-37.6857481,176.169156,"53 Devonport Road, Tauranga 3110, New Zealand"
"23 Coronation Road, M¨¡ngere Bridge, Auckland,NewZealand",-36.9415781,174.7872903,"23 Coronation Road, Māngere Bridge, Auckland 2022, New Zealand"
"240 Ormiston Road, Flat Bush, Auckland,NewZealand",-36.9646162,174.9124798,"240 Ormiston Road, Flat Bush, Auckland 2019, New Zealand"
"16 West Street, Pukekohe,NewZealand",-37.2011558,174.9002315,"16 West Street, Pukekohe 2120, New Zealand"
"396 Don Buck Road, Massey, Auckland,NewZealand",-36.8347421,174.6025704,"396 Don Buck Road, Massey, Auckland 0614, New Zealand"
"Unichem Russell Street Pharmacy, 108 Russell Street South, Hastings,NewZealand",-39.6426254,176.8428173,"108 Russell Street South, Hastings 4122, New Zealand"
"6 Dee Street, Timaru,NewZealand",-44.3958826,171.2478854,"6 Dee Street, Timaru 7910, New Zealand"
"93 Tarbert Street, Alexandra,NewZealand",-45.2531067,169.3949557,"93 Tarbert Street, Alexandra 9320, New Zealand"
"503 Port Road, Whangamat¨¡,NewZealand",-37.2058995,175.8718511,"503 Port Road, Whangamatā 3620, New Zealand"
"1 Guinness Street, Greymouth,NewZealand",-42.4497824,171.2107005,"1 Guinness Street, Greymouth 7805, New Zealand"
"Silverstream Village Shops, Cnr of Kiln Street and Whitemans Road, Upper Hutt,NewZealand",-41.1498919,175.0139617,"Whitemans Road, Silverstream, Upper Hutt 5019, New Zealand"
"351A King Edward Street, South Dunedin, Dunedin,NewZealand",-45.89767459999999,170.5015582,"351A King Edward Street, South Dunedin, Dunedin 9012, New Zealand"
"9 Halswell Road, Hillmorton, Christchurch,NewZealand",-43.5542475,172.5940377,"9 Halswell Road, Hillmorton, Christchurch 8025, New Zealand"
"11 Amohia Street, Paraparaumu,NewZealand",-40.9159633,175.0066267,"11 Amohia Street, Paraparaumu 5032, New Zealand"
"231-233 Great South Road, Drury,NewZealand",-37.1022105,174.9513301,"231-233 Great South Road, Auckland 2113, New Zealand"
"51 Corinthian Drive, Albany, Auckland,NewZealand",-36.7325825,174.7146576,"51 Corinthian Drive, Albany, Auckland 0632, New Zealand"
"Not found address,NewZealand",-40.900557,174.885971,New Zealand
"98 Macandrew Road, South Dunedin, Dunedin,NewZealand",-45.8968152,170.4988459,"98 Macandrew Road, South Dunedin, Dunedin 9012, New Zealand"
"Cnr Albert Street and Broadway Avenue, Palmerston North,NewZealand",-40.3511204,175.6193465,"Broadway Avenue, Palmerston North Central, Palmerston North, New Zealand"
"108 Seabury Avenue, Foxton Beach,NewZealand",-40.4650773,175.2290895,"108 Seabury Avenue, Foxton Beach 4815, New Zealand"
"138 Royal Road, Massey, Auckland,NewZealand",-36.8325404,174.6229754,"138 Royal Road, Massey, Auckland 0614, New Zealand"
"41 Hunter Street, H¨¡wera,NewZealand",-39.58604820000001,174.2669326,"41 Hunter Street, Hāwera 4610, New Zealand"
"110 Lunn Ave, Remuera, Auckland,NewZealand",-36.8886122,174.8307411,"110 Lunn Avenue, Remuera, Auckland 1072, New Zealand"
"Meadowbank Shopping Centre, 35-47 Saint Johns Road, Saint Johns, Auckland,NewZealand",-36.87607680000001,174.8283131,"35 Saint Johns Road, St Johns, Auckland 1072, New Zealand"
"55A Glenvar Ridge Road, Long Bay, Auckland,NewZealand",-36.6852891,174.7395123,"55a Glenvar Ridge Road, Long Bay, Auckland 0630, New Zealand"
"287 Great South Road, Papakura,NewZealand",-37.0651688,174.9437209,"287 Great South Road, Papakura, Auckland 2110, New Zealand"
"14 Highland Park Drive, Highland Park, Auckland,NewZealand",-36.8998538,174.9078767,"14 Highland Park Drive, Highland Park, Auckland 2010, New Zealand"
"131 Middle Renwick Road, Springlands, Blenheim,NewZealand",-41.5097306,173.9354727,"131 Middle Renwick Road, Springlands, Blenheim 7201, New Zealand"
"Unichem Weiti Pharmacy, 2/3 Brian Smith Drive, Silverdale,NewZealand",-36.6199909,174.6708367,"2/3 Brian Smith Drive, Silverdale 0932, New Zealand"
"107 Wainui Street, Riccarton, Christchurch,NewZealand",-43.5309519,172.5928099,"107 Wainui Street, Riccarton, Christchurch 8041, New Zealand"
"51 High Street, Dannevirke,NewZealand",-40.209354,176.0972132,"51 High Street, Dannevirke 4930, New Zealand"
"Meadowlands Shopping Plaza, 112 Whitford Road, Somerville, Auckland,NewZealand",-36.9135467,174.9285182,"Cnr Meadowlands Dve & Whitford Rd, Howick, Auckland 2014, New Zealand"
"Whanganui Hospital, 100 Heads Road, Whanganui.,NewZealand",-39.9440257,175.0377248,"100 Heads Road, Gonville, Whanganui 4501, New Zealand"
"Remarkables Park Shopping Centre, 12 Hawthorne Drive, Frankton, Queenstown,NewZealand",-45.0266133,168.7428064,"Remarkables park 7/12 Hawthorne Drive, Frankton, Queenstown 9300, New Zealand"
"Not found address,NewZealand",-40.900557,174.885971,New Zealand
"6/8 Greenhithe Road, Greenhithe, Auckland,NewZealand",-36.775658,174.6699293,"6/8 Greenhithe Road, Greenhithe, Auckland 0632, New Zealand"
"197 Broadway, Newmarket, Auckland,NewZealand",-36.8690698,174.7775914,"197 Broadway, Newmarket, Auckland 1023, New Zealand"
"340 Rangatira Road, Beach Haven, Auckland,NewZealand",-36.7927287,174.6876617,"340 Rangatira Road, Beach Haven, Auckland 0626, New Zealand"
"1490 Dominion Road Extension, Mount Roskill, Auckland,NewZealand",-36.9209222,174.7362444,"1490 Dominion Road Extension, Mount Roskill, Auckland 1041, New Zealand"
"26 College Road, Edgecumbe,NewZealand",-37.975009,176.8273421,"26 College Road, Edgecumbe 3120, New Zealand"
"63 St George Street, Papatoetoe, Auckland,NewZealand",-36.9800234,174.8535748,"63 Saint George Street, Papatoetoe, Auckland 2025, New Zealand"
"507 Great South Road, ¨­t¨¡huhu, Auckland,NewZealand",-36.9796429,174.8742045,"507 Great South Road, Ōtāhuhu, Auckland 1062, New Zealand"
"40 Clyde Street, Balclutha,NewZealand",-46.2377617,169.7392315,"40 Clyde Street, Balclutha 9230, New Zealand"
"Tokoroa Whare Rongo¨¡ ¨¡raimate Community Vaccination Centre, 203 Leith Place, Tokoroa,NewZealand",-38.217811,175.8724701,"203 Leith Place, Tokoroa 3420, New Zealand"
"170 Otaika Road, Raumanga, Whang¨¡rei,NewZealand",-35.7437447,174.306515,"170 Otaika Road, Raumanga, Whangārei 0110, New Zealand"
"8 Broadway, Dunedin Central, Dunedin,NewZealand",-45.8775195,170.500104,"8 Broadway, Central Dunedin, Dunedin 9016, New Zealand"
"216 Main South Road, Green Island, Dunedin,NewZealand",-45.9021869,170.4289872,"216 Main South Road, Green Island, Dunedin 9018, New Zealand"
"Not found address,NewZealand",-40.900557,174.885971,New Zealand
"100 Molesworth Street, Thorndon, Wellington,NewZealand",-41.2758799,174.7782614,"100 Molesworth Street, Thorndon, Wellington 6011, New Zealand"
"268 Blockhouse Bay Road, Avondale, Auckland,NewZealand",-36.9063822,174.701839,"268 Blockhouse Bay Road, Avondale, Auckland 0600, New Zealand"
"5 Waimahia Avenue, Weymouth, Auckland,NewZealand",-37.0430255,174.8656089,"5 Waimahia Avenue, Weymouth, Auckland 2103, New Zealand"
"34 Wycola Avenue, Hei Hei, Christchurch,NewZealand",-43.5356329,172.5208034,"34 Wycola Avenue, Hei Hei, Christchurch 8042, New Zealand"
"175 William Jones Drive, Otangarei, Whang¨¡rei,NewZealand",-35.6950459,174.3199424,"175 William Jones Drive, Otangarei, Whangārei 0112, New Zealand"
"87 Hurstmere Road, Takapuna, Auckland,NewZealand",-36.7864227,174.7731401,"87 Hurstmere Road, Takapuna, Auckland 0622, New Zealand"
"191 Willis Street, Te Aro, Wellington,NewZealand",-41.29152750000001,174.7735762,"191 Willis Street, Te Aro, Wellington 6011, New Zealand"
"1181 Amohia Street, Rotorua,NewZealand",-38.1354577,176.2483177,"1181 Amohia Street, Rotorua 3010, New Zealand"
"8 Waimauku Station Road, Waimauku,NewZealand",-36.7681645,174.492843,"8 Waimauku Station Road, Waimauku 0812, New Zealand"
"Auckland City Hospital,NewZealand",-36.8594997,174.7703505,"2 Park Road, Grafton, Auckland 1023, New Zealand"
"Five Mile Shopping Centre, Grant Road, Frankton, Queenstown,NewZealand",-45.0130461,168.7430014,"Grant Road, Frankton, Queenstown 9371, New Zealand"
"121 Victoria Avenue, Whanganui,NewZealand",-39.93243,175.0508614,"121 Victoria Avenue, Whanganui 4500, New Zealand"
"96 Rosedale Road, Rosedale, Auckland,NewZealand",-36.7365824,174.7250415,"96 Rosedale Road, Albany, Auckland 0632, New Zealand"
"8 Kelvin Grove, Te Aro, Wellington,NewZealand",-41.2971309,174.7745318,"8 Kelvin Grove, Te Aro, Wellington 6011, New Zealand"
"64 Albert Street, Whitianga,NewZealand",-36.834507,175.7047438,"64 Albert Street, Whitianga 3510, New Zealand"
"280 Richmond Road, Grey Lynn, Auckland,NewZealand",-36.8551455,174.7319255,"280 Richmond Road, Grey Lynn, Auckland 1021, New Zealand"
"85 Bellevue Road, Brookfield, Tauranga,NewZealand",-37.6898366,176.1350264,"85 Bellevue Road, Brookfield, Tauranga 3110, New Zealand"
"1784 Great North Road, Avondale, Auckland,NewZealand",-36.8916723,174.6963631,"1784 Great North Road, Avondale, Auckland 1026, New Zealand"
"2 Kitchener Road, Sandringham, Auckland,NewZealand",-36.892216,174.7360947,"2 Kitchener Road, Sandringham, Auckland 1025, New Zealand"
"9 Symonds Street, Auckland,NewZealand",-36.8520297,174.7699001,"9 Symonds Street, Auckland CBD, Auckland 1010, New Zealand"
"407 Glenfield Road, Glenfield, Auckland,NewZealand",-36.7812061,174.7216166,"407 Glenfield Road, Glenfield, Auckland 0629, New Zealand"
"New Nawton Shopping Centre, Hyde Avenue, Nawton, Hamilton,NewZealand",-37.7808683,175.2370382,"Hyde Avenue, Nawton, Hamilton 3200, New Zealand"
"252 The Strand, Whakat¨¡ne,NewZealand",-37.9520397,176.9928657,"252 The Strand, Whakatāne 3120, New Zealand"
"107 Mana Esplanade, Paremata, Porirua,NewZealand",-41.092543,174.8680721,"107 Mana Esplanade, Paremata, Porirua 5026, New Zealand"
"204 Lambton Quay, Wellington Central, Wellington,NewZealand",-41.2825232,174.7755195,"204 Lambton Quay, Wellington Central, Wellington 6011, New Zealand"
"153-155 Hanover Street, Dunedin,NewZealand",-45.8710013,170.5098097,"153-155 Hanover Street, Central Dunedin, Dunedin 9016, New Zealand"
"60 Hare Puke Drive, Flagstaff, Hamilton,NewZealand",-37.7198023,175.2413188,"60 Hare Puke Drive, Flagstaff, Hamilton 3210, New Zealand"
"81 Paramount Parade, Tikipunga, Whang¨¡rei,NewZealand",-35.6830766,174.3218876,"81 Paramount Parade, Tikipunga, Whangārei 0112, New Zealand"
"118A Claridges Road, Casebrook, Christchurch,NewZealand",-43.4731088,172.5943495,"118A Claridges Road, Casebrook, Christchurch 8051, New Zealand"
"12A Waddon Place, M¨¡ngere, Auckland,NewZealand",-36.9711212,174.7975332,"12A Waddon Place, Māngere, Auckland 2022, New Zealand"
"Johnsonville Shopping Centre, 16 Broderick Road, Johnsonville, Wellington,NewZealand",-41.22319,174.8069477,"34 Johnsonville Road, Johnsonville, Wellington 6037, New Zealand"
"T¨©tahi Bay Pharmacy, 24 Whitehouse Road, T¨©tahi Bay, Porirua,NewZealand",-41.1085372,174.8373856,"24 Whitehouse Road, Tītahi Bay, Porirua 5022, New Zealand"
"14 Queen Street, Te Puke,NewZealand",-37.7858168,176.3263862,"14 Queen Street, Te Puke 3119, New Zealand"
"250 Karori Road, Karori, Wellington,NewZealand",-41.2844715,174.7378081,"250 Karori Road, Karori, Wellington 6012, New Zealand"
"36 Maratahu Street, Westown, New Plymouth,NewZealand",-39.0691836,174.068915,"36 Maratahu Street, Westown, New Plymouth 4310, New Zealand"
"211 Ormiston Road, Flat Bush, Auckland,NewZealand",-36.9663142,174.9133352,"211 Ormiston Road, Flat Bush, Auckland 2019, New Zealand"
"288 Gloucester Street, Taradale, Napier,NewZealand",-39.5364899,176.8484687,"288 Gloucester Street, Taradale, Napier 4112, New Zealand"
"EFKS, 8 Seddon Street, Levin,NewZealand",-40.6292224,175.2774264,"8 Seddon Street, Levin 5510, New Zealand"
"415 Queen Street, Auckland Central, Auckland,NewZealand",-36.8569379,174.761648,"415 Queen Street, Auckland CBD, Auckland 1010, New Zealand"
"114B Church Street, ¨­p¨­tiki,NewZealand",-40.900557,174.885971,New Zealand
"122 Cuba Street, Te Aro, Wellington,NewZealand",-41.2928831,174.7757705,"122 Cuba Street, Te Aro, Wellington 6011, New Zealand"
"104 Weymouth Road, Manurewa, Auckland,NewZealand",-37.0277707,174.8875934,"104 Weymouth Road, Manurewa, Auckland 2102, New Zealand"
"36 Maratahu Street, Westown, New Plymouth,NewZealand",-39.0691836,174.068915,"36 Maratahu Street, Westown, New Plymouth 4310, New Zealand"
"Queen Street Pharmacy, 35 Queen Street, Upper Hutt,NewZealand",-41.1226613,175.0736791,"35 Queen Street, Upper Hutt Central, Upper Hutt 5018, New Zealand"
"209 Waimairi Road, Ilam, Christchurch,NewZealand",-43.5162646,172.571762,"209 Waimairi Road, Ilam, Christchurch 8041, New Zealand"
"161 Commerce Street, Frankton, Hamilton,NewZealand",-37.7878908,175.2651621,"161 Commerce Street, Frankton, Hamilton 3204, New Zealand"
"Unichem Tuakau Pharmacy, 51 George Street, Tuakau,NewZealand",-37.260027,174.9462577,"51 George Street, Tuakau 2121, New Zealand"
"212 Bealey Avenue, Christchurch Central, Christchurch,NewZealand",-43.5212069,172.6418029,"212 Bealey Avenue, Christchurch Central City, Christchurch 8013, New Zealand"
"205-207 Great South Road, Papakura,NewZealand",-37.0636675,174.9427854,"205/207 Great South Road, Papakura, Auckland 2110, New Zealand"
"31 Pembroke Street, Hamilton,NewZealand",-37.7959119,175.2810783,"31 Pembroke Street, Hamilton Lake, Hamilton 3204, New Zealand"
"Unichem Morrinsville Pharmacy, 72 Studholme Street, Morrinsville,NewZealand",-37.6575634,175.5277649,"72 Studholme Street, Morrinsville 3300, New Zealand"
"43 Moore Street, Howick, Auckland,NewZealand",-36.8958081,174.9312051,"43 Moore Street, Howick, Auckland 2014, New Zealand"
"93 Hakiaha Street, Taumarunui,NewZealand",-38.883268,175.2635562,"93 Hakiaha Street, Taumarunui 3920, New Zealand"
"233 Mount Smart Road, Onehunga, Auckland,NewZealand",-36.9149743,174.8011886,"233 Mount Smart Road, Onehunga, Auckland 1061, New Zealand"
"133 Great King Street, Dunedin Central, Dunedin,NewZealand",-45.870914,170.5073369,"133 Great King Street, Central Dunedin, Dunedin 9016, New Zealand"
"201 Warspite Avenue, Waitangirua, Porirua,NewZealand",-41.1305899,174.8800268,"201 Warspite Avenue, Waitangirua, Porirua 5024, New Zealand"
"168 Palmerston Street, Riverton,NewZealand",-46.3517613,168.0136217,"168 Palmerston Street, Riverton / Aparima 9822, New Zealand"
"74-76 Queens Road, Panmure, Auckland,NewZealand",-36.8992641,174.854346,"74/76 Queens Road, Panmure, Auckland 1072, New Zealand"
"Cnr Line Road & Mayfair Place, Glen Innes, Auckland,NewZealand",-36.8743565,174.8577712,"Line Road, Glen Innes, Auckland 1072, New Zealand"
"70 Cleghorn Street, Redwoodtown, Blenheim,NewZealand",-41.5300476,173.9558852,"70 Cleghorn Street, Redwoodtown, Blenheim 7201, New Zealand"
"46B COBDEN STREET, WESTPORT,NewZealand",-41.7485981,171.6060327,"46B Cobden Street, Westport 7825, New Zealand"
"THE COLLINGWOOD CENTRE, 105 COLLINGWOOD STREET, NELSON,NewZealand",-41.27379759999999,173.2873486,"105 Collingwood Street, Nelson 7010, New Zealand"
"118A CLARIDGES ROAD, CASEBROOK, CHRISTCHURCH,NewZealand",-43.4731088,172.5943495,"118A Claridges Road, Casebrook, Christchurch 8051, New Zealand"
"1 TUPAROA ROAD, RUAT?RIA,NewZealand",-37.8899526,178.3194389,"1 Tuparoa Road, Ruatoria 4032, New Zealand"
"35 TENNYSON STREET, TE ARO, WELLINGTON,NewZealand",-41.2950142,174.7810577,"35 Tennyson Street, Te Aro, Wellington 6011, New Zealand"
"KARORI MEDICAL CENTRE, 11 PARKVALE ROAD, KARORI, WELLINGTON,NewZealand",-41.2839355,174.7370721,"11 Parkvale Road, Karori, Wellington 6012, New Zealand"
"40 BANKS ST, TOLAGA BAY,NewZealand",-38.3698487,178.2957741,"40 Banks Street, Tolaga Bay 4077, New Zealand"
"190 LAMBTON QUAY, WELLINGTON CENTRAL, WELLINGTON,NewZealand",-41.282175,174.7757489,"190 Lambton Quay, Wellington Central, Wellington 6011, New Zealand"
"QUEEN ST PRACTICE, 24 KITCHENER STREET, WAIROA,NewZealand",-39.0411379,177.4173354,"36 Kitchener Street, Wairoa 4108, New Zealand"
"135 TANCRED STREET, ASHBURTON,NewZealand",-43.9062316,171.7481209,"135 Tancred Street, Ashburton 7700, New Zealand"
