f_location,latitude,longitude,location
"ABRA PHO,Abra - Ilocos Norte Rd. Calaba, Bangued, Abra,Philippines",17.599791,120.6215446,"Ilocos Sur-Abra Road, corner Abra - Kalinga Road, Calaba, HJXC+WJ7, Bangued, 2800 Abra, Philippines"
"BANGUED RURAL HEALTH UNIT,ACTIVIDAD ECONOMIA ST., ZONE 3, BANGUED, ABRA,Philippines",17.5881847,120.6314948,"Bangued, Abra, Philippines"
"Boliney Rural Health Unit,Poblacion, Boliney Abra,Philippines",17.3604233,120.8211796,"Poblacion (Boliney), Boliney, Abra, Philippines"
"BUCAY RURAL HEALTH UNIT,SOUTH POBLACION BUCAY,ABRA,Philippines",17.5391914,120.7249362,"South Poblacion, Bucay, Abra, Philippines"
"BUCLOC Rural Health Unit,Pob. Lamao, Bucloc Abra,Philippines",17.4416893,120.8574676,"CVR4+MXG, Bucloc, Abra, Philippines"
"DAGUIOMAN RURAL HELATH UNIT,TUI, DAGUIOMAN ABRA,Philippines",17.4590033,120.9264618,"FW5G+JH4, Daguioman, Abra, Philippines"
"DANGLAS RURAL HEALTH UNIT,Cabaruan, Danglas, Abra,Philippines",17.7206538,120.706051,"PPC4+7C7, Unnamed Road, Lagayan, Abra, Philippines"
"Dolores Rural Health Unit,Pobalcion, Dolores, Abra,Philippines",17.6499231,120.7285606,"National Road, Poblacion, JPXH+XC7, Dolores, 2801 Abra, Philippines"
"LA PAZ RURAL HEALTH UNIT,POBLACION LA PAZ ABRA,Philippines",17.6477334,120.6545022,"La Paz, Abra, Philippines"
"LACUB RURAL HEALTH UNIT,POBLACION,LACUB,ABRA,Philippines",17.6893614,120.9646866,"Lacub, Abra, Philippines"
"LAGANGILANG RURAL HEALTH UNIT,LAANG, LAGANGILANG, ABRA,Philippines",17.6075073,120.7358303,"JP5P+284, Lagangilang, Abra, Philippines"
"LAGAYAN RURAL HEALTH UNIT,Poblacion,Lagayan Abra,Philippines",17.7206538,120.706051,"PPC4+7C7, Unnamed Road, Lagayan, Abra, Philippines"
"LANGIDEN RURAL HEALTH UNIT,Poblacion, Langiden, Abra,Philippines",17.6038662,120.5394232,"Langiden, Abra, Philippines"
"LICUAN-BAAY RURAL HEALTH UNIT,MASISIAT, TUMALIP, LICUAN-BAAY,ABRA,Philippines",17.5472624,120.8756851,"GVWG+W73, Licuan-Baay, Abra, Philippines"
"LUBA RURAL HEALTH UNIT,Bangel, Poblacion, Luba, Abra,Philippines",17.3168002,120.6937516,"National Road, Poblacion, 8M8V+PGC, Luba, 2813 Abra, Philippines"
"Malibcong Rural Health Unit,Poblacion,Malibcong,Abra,Philippines",17.5969743,121.0105733,"H2W6+Q6P, Malibcong, 2820 Abra, Philippines"
"Manabo Rural Health Unit,Poblacion Ayyeng, Manabo, Abra,Philippines",17.432059,120.7044268,"CPJ3+RQF, Manabo, Abra, Philippines"
"Pe?arrubia Rural Health Unit,Dumayco Pe?arrubia,Abra,Philippines",17.5641798,120.6556658,"HM74+M7F, Pe?arrubia, Abra, Philippines"
"Pidigan Rural Health Unit,Poblacion West, Pidigan, Abra,Philippines",17.536542,120.564923,"National Road, Poblacion, GHP7+JX7, Pidigan, 2806 Abra, Philippines"
"PILAR RURAL HEALTH UNIT,POBLACION PILAR, ABRA,Philippines",17.3844704,120.5864632,"National Road, Poblacion, 9HMP+QHP, Pilar, 2812 Abra, Philippines"
"SALLAPADAN RURAL HEALTH UNIT,Poblacion, Gangal Sallapadan Abra,Philippines",17.4924842,120.7614595,"FQR6+XHW, National Road, Sallapadan, 2818 Abra, Philippines"
"San Isidro Rural Health Unit,Poblacion San isidro, Abra,Philippines",17.4800566,120.6142365,"San Isidro, Abra, Philippines"
"San Juan Rural Health Unit,North Poblacion, San Juan, Abra,Philippines",7.7624824,125.0222946,"North Poblacion, Maramag, Bukidnon, Philippines"
"San Quintin Rural Health Unit,Poblacion San Quintin Abra,Philippines",17.5228349,120.5159443,"National Road, Poblacion, GGF8+49P, San Quintin, 2808 Abra, Philippines"
"Tayum Rural Health Unit,Poblacion, Tayum, Abra,Philippines",17.6178115,120.6528918,"JM93+45C, Eriberto Cari?o St, Poblacion, Tayum, Abra, Philippines"
"Tineg Rural Health Unit,Vira,Alaoa Tineg, Abra,Philippines",17.7206538,120.706051,"PPC4+7C7, Unnamed Road, Lagayan, Abra, Philippines"
"TUBO Rural Health Unit,Poblacion,Tubo,Abra,Philippines",17.2656451,120.8498944,"7R8X+7X2, Tubo, 2814 Abra, Philippines"
"Villaviciosa Rural Health Unit,Municipal Compound, Poblacion, Villaviciosa, Abra,Philippines",17.4378814,120.6253901,"Poblacion, CJQG+552, San Isidro, Abra, Philippines"
"Dilong Barangay Health Station,Dilong, Tubo, Abra,Philippines",17.1785096,120.7128341,"5PH7+C44, Tubo, Abra, Philippines"
"Isit Barangay Health Station ,Isit, Dolores, Abra,Philippines",17.3171234,120.6545263,"8M83+VC, Luba, Abra, Philippines"
"Cardona Barangay Health Station ,Cardona, Dolores, Abra,Philippines",17.6507819,120.7292472,"Dolores, Abra, Philippines"
"Tumalip Barangay Health Station ,Tumalip, Licuan-Baay, Abra,Philippines",17.5550995,120.8556366,"Tumalip, Licuan-Baay, Abra, Philippines"
"CALANASAN RHU,POBLACION CALANASAN APAYAO,Philippines",18.2479181,121.03351,"62XM+5C6, Calanasan, Apayao, Philippines"
"CONNER RHU,CAGLAYAN, CONNER, APAYAO,Philippines",17.7874998,121.3370074,"Caglayan (New Pob.), Conner, Apayao, Philippines"
"FLORA RHU,POBLACION EAST, FLORA, APAYAO,Philippines",18.2327346,121.4399041,"Poblacion East, Flora, Apayao, Philippines"
"KABUGAO RHU,POBLACION, KABUGAO APAYAO,Philippines",17.9779378,121.1252135,"Kabugao, Apayao, Philippines"
"LUNA RHU,PAYANAN, TUROD, LUNA., APAYAO,Philippines",18.2997456,121.2740813,"Turod, Luna, Apayao, Philippines"
"PUDTOL RHU,POBLACION, PUDTOL APAYAO,Philippines",18.1393236,121.2855249,"Pudtol, Apayao, Philippines"
"SANTA MARCELA RHU,SAN CARLOS, SANTA MARCELA, APAYAO,Philippines",18.291778,121.43419,"Santa Marcela, Apayao, Philippines"
"Farnorth Luzon General Hospital & Training Center,Quirino, Luna, Apayao,Philippines",18.3395298,121.3838224,"89QM+RG8, Abulug-Luna-Pudtol-Kabugao Rd, Luna, Apayao, Philippines"
"Conner District Hospital,Ripang, Conner Apayao,Philippines",17.8007847,121.3225347,"R82F+827, Conner, Apayao, Philippines"
"FLORA GYMNASIUM,POBLACION EAST, FLORA, APAYAO,Philippines",18.2327346,121.4399041,"Poblacion East, Flora, Apayao, Philippines"
"STA. MARIA GYMNASIUM,STA. MARIA, FLORA, APAYAO,Philippines",18.1145991,121.422761,"Flora, Apayao, Philippines"
"Dibagat covered court,Dibagat, Kabugao, Apayao,Philippines",18.0880699,121.095398,"Dibagat, Kabugao, Apayao, Philippines"
"Luttuacan Covered court,Mallag, Luttuacan, Kabugao, Apayao,Philippines",17.9911502,121.2068277,"Luttuacan, Kabugao, Apayao, Philippines"
"EKB-GYM Pudtol,POBLACION EAST, PUDTOL, APAYAO,Philippines",18.2327346,121.4399041,"Poblacion East, Flora, Apayao, Philippines"
"DSA Gymnasium,Poblacion, Kabugao, Apayao,Philippines",17.9779378,121.1252135,"Kabugao, Apayao, Philippines"
"PHO,SAN ISIDRO SUR, LUNA APAYAO,Philippines",18.3296401,121.3856088,"San Isidro Sur, Apayao, Philippines"
"ASIN DHC,UPPER PUROK 3 KM 4 ASIN ROAD,Philippines",16.4096895,120.5633751,"3 KM4 Asin Rd, Baguio, Benguet, Philippines"
"ATAB DHC,SANTO TOMAS ROAD DONTOGAN,Philippines",16.3793694,120.5714803,"Santo Tomas Rd, Benguet, Philippines"
"ATOK TRAIL DHC,1 ATOK TRAIL,Philippines",16.3768424,120.6269308,"1 Atok Trail, Baguio, Benguet, Philippines"
"AURORA HILL DHC,1 MALVER ST AURORA HILL PROPER,Philippines",16.4243114,120.6030892,"CJF3+P6G, Baguio, Benguet, Philippines"
"CAMPO FILIPINO DHC,BADO DANGWA ST CAMPO FILIPINO,Philippines",16.4191451,120.5887708,"Bado Dangwa, Baguio, Benguet, Philippines"
"CITY CAMP DHC,CITY CAMP CENTRAL,Philippines",16.4112161,120.5880255,"City Camp Rd, Baguio, Benguet, Philippines"
"ENGINEERS HILL DHC,UPPER ENGINEERS HILL,Philippines",16.4074556,120.6016508,"Engineers' Hill, Baguio, Benguet, Philippines"
"IRISAN DHC,PUROK 12 IRISAN,Philippines",16.4210976,120.5595696,"Irisan, Baguio, Benguet, Philippines"
"LOAKAN DHC,37 PUROK BUBON,Philippines",16.3740002,120.6156748,"Loakan Proper, Baguio, Benguet, Philippines"
"LUCBAN DHC,T ALONZO ST,Philippines",14.1344459,121.5598345,"Lucban, Quezon, Philippines"
"MINESVIEW DHC,CORNER TORRES ST. MINESVIEW,Philippines",12.879721,121.774017,Philippines
"PACDAL DHC,SIAPNO ROAD,Philippines",16.4189887,120.6138594,"Siapno Rd, Baguio, Benguet, Philippines"
"PINSAO DHC,PUROK 6 PINSAO PILOT,Philippines",16.4269861,120.582141,"Pinsao Rd, Baguio, Benguet, Philippines"
"QUEZON HILL DHC,MIDDLE QUEZON HILL,Philippines",12.879721,121.774017,Philippines
"QUIRINO DHC,MIDDLE QUIRINO HILL,Philippines",16.42987,120.5930199,"Quirino Hill, Middle, Baguio, Benguet, Philippines"
"SCOUT BARRIO DHC,PUROK 6 SCOUT BARRIO,Philippines",16.3957896,120.6088428,"Scout Barrio, Camp John Hay, Baguio, Benguet, Philippines"
"SM,LUNETA HILL UPPER SESSION ROAD, BAGUIO CITY,Philippines",16.4088814,120.5991997,"SM City Baguio Luneta Hill, Upper Session Rd, Baguio, 2600 Benguet, Philippines"
"Atok Rural Health Unit,Km24 Caliking, Atok, Benguet,Philippines",16.5300197,120.6832556,"Caliking, Atok, Benguet, Philippines"
"Bakun Rural Health Unit,Ampusongan, Bakun, Benguet,Philippines",16.8079575,120.6890055,"RM5Q+5JJ, Bakun, 2610 Benguet, Philippines"
"Bokod Rural Health Unit,Poblacion, Bokod, Benguet,Philippines",16.5343251,120.7044794,"GPM3+PQF, Atok, Benguet, Philippines"
"Buguias Rural Health Unit,Loo, Buguias, Benguet,Philippines",16.7882781,120.8318551,"QRQJ+8P9, Buguias, Benguet, Philippines"
"Itogon Rural Health Unit,Poblacion, Itogon, Benguet,Philippines",16.3705183,120.6947551,"Poblacion (Central), Itogon, Benguet, Philippines"
"Kabayan Rural Health Unit,Poblacion, Kabayan, Benguet,Philippines",16.6250939,120.8386069,"JRGQ+2CQ, Kabayan, Benguet, Philippines"
"Kapangan Rural Health Unit,Tumpic, Labueg, Kapangan, Benguet,Philippines",16.5759467,120.6070078,"Tumpic Road, Kapangan, 2613 Benguet, Philippines"
"Kibungan Rural Health Unit,Poblacion, Kibungan, Benguet,Philippines",16.693545,120.6526968,"MMV3+C38, Kibungan, Benguet, Philippines"
"La Trinidad Rural Health Unit,Poblacion, La Trinidad, Benguet,Philippines",16.4636573,120.5811515,"Poblacion, La Trinidad, Benguet, Philippines"
"Mankayan Rural Health Unit,Poblacion, Mankayan, Benguet,Philippines",16.8566122,120.7925891,"VQ4V+J2W, Cervantes - Mankayan - Abatan Rd, Mankayan, Benguet, Philippines"
"Sablan Rural Health Unit,Central Poblacion, Sablan, Benguet,Philippines",16.4885206,120.5163949,"National Road, Poblacion, FGQ8+CH2, Sablan, 2614 Benguet, Philippines"
"Tuba Rural Health Unit,Poblacion, Tuba, Benguet,Philippines",16.3926755,120.5598924,"9HV5+3XC, Tuba, Benguet, Philippines"
"Tublay Rural Health Unit,Acop, Caponga, Tublay. Benguet,Philippines",16.4811622,120.6602534,"Caponga (Pob.), Benguet, Philippines"
"Aguinaldo Rural Health Unit,Purok I, Galonogon, Aguinaldo,Philippines",16.9733978,121.343565,"National Road, Barangay Galonogon, X8FV+9C4, Aguinaldo, 3606 Ifugao, Philippines"
"Alfonso Lista Rural Health Unit,Santa Maria, Alfonso Lista,Philippines",16.988521,121.4913182,"Alfonso Lista, Ifugao, Philippines"
"Asipulo Rural Health Unit,Neduntog , Antipolo, Asipulo,Philippines",14.6254827,121.1244847,"Antipolo, Rizal, Philippines"
"Banaue Rural Health Unit,Poblacion , Banaue,Philippines",16.9472907,121.0560322,"National Highway, Poblacion, W3W4+WC7, Banaue, 3601 Ifugao, Philippines"
"Hingyon Rural Health Unit,Culob, Bitu,  Hingyon,Philippines",16.8614658,121.1114722,"National Road, Culub Bitu, V466+HHQ, Hingyon, 3607 Ifugao, Philippines"
"Hungduan Rural Health Unit,Namugong, Poblacion, Hungduan,Philippines",16.8389028,121.0105733,"Hungduan, Ifugao, Philippines"
"Kiangan Rural Health Unit,Centro, Poblacion, Kiangan,Philippines",16.7764147,121.0866322,"Q3GP+HM6, Kiangan, Ifugao, Philippines"
"Lagawe Rural Health Unit,St. Mary Magdalene Street, Poblacion South, Lagawe,Philippines",16.7929281,121.1209165,"Poblacion South, Ifugao, Philippines"
"Lamut Rural Health Unit,Poblacion West, Lamut,Philippines",16.6712161,121.2139841,"Poblacion West, Lamut, Ifugao, Philippines"
"Mayoyao Rural Health Unit,Galliw, Poblacion, Mayoyao,Philippines",16.9736865,121.2214303,"X6FC+FHF, Mayoyao, Ifugao, Philippines"
"Tinoc Rural Health Unit,Kumelbeng, Tinoc,Philippines",16.6782924,120.9357098,"MWHP+878, Tinoc, Ifugao, Philippines"
"BALBALAN RHU,Poblacion, Salegseg, Balbalan,Philippines",17.5017472,121.2014153,"G622+MH2, Balbalan, Kalinga, Philippines"
"LUBUAGAN RHU,Poblacion, Lubuagan, Kalinga,Philippines",17.3018126,121.0105733,"Lubuagan, Kalinga, Philippines"
"PASIL,Amdalao, Pasil, Kalinga,Philippines",17.4124793,121.1022942,"Pasil, Kalinga, Philippines"
"JUNCTION, PINUKPUK RHU,Junction, Pinukpuk, Kalinga,Philippines",17.6094461,121.4171511,"JC58+QV, Pinukpuk, Kalinga, Philippines"
"TAGA, PINUKPUK RHU,Taga, Pinukpuk, Kalinga,Philippines",17.6094461,121.4171511,"JC58+QV, Pinukpuk, Kalinga, Philippines"
"RIZAL RHU,Liwan East, Rizal, Kalinga,Philippines",17.4974231,121.6397184,"Liwan East, Kalinga, Philippines"
"RURAL HEALTH UNIT 1,Dagupan, Tabuk City, Kalinga,Philippines",17.4725149,121.466725,"FFF8+2M5, Tabuk, Kalinga, Philippines"
"RURAL HEALTH UNIT 2,Calanan, Tabuk City, Kalinga,Philippines",17.403331,121.413675,"CC37+8FM, Tabuk, Kalinga, Philippines"
"RURAL HEALTH UNIT 3,Bulanao, Tabuk City, Kalinga,Philippines",17.4101198,121.4390642,"Purok 6, National Highway, Bulanao, CC5Q+RM5, Tabuk, Kalinga, Philippines"
"RURAL HEALTH UNIT 4,Agbannawag, Tabuk City, Kalinga,Philippines",17.3455928,121.548418,"Agbannawag, Tabuk, Kalinga, Philippines"
"TANUDAN RHU,Mabaca, Tanudan, Kalinga,Philippines",17.3473037,121.2969674,"Mabaca, Kalinga, Philippines"
"TINGLAYAN RHU,Poblacion, Tinglayan, Kalinga,Philippines",17.2623251,121.1338071,"746M+WGM, Poblacion - Tulgao Rd, Tinglayan, Kalinga, Philippines"
"PROVINCIAL HEALTH OFFICE,Bulanao, Tabuk City, Kalinga,Philippines",17.3785499,121.4798948,"Bulanao, Tabuk, Kalinga, Philippines"
"PARACELIS MUNICIPAL HEALTH OFFICE,DAGAWE EAST, BRGY. POBLACION, PARACELIS, MOUNTAIN PROVINCE,Philippines",17.1813672,121.4040644,"5CJ3+HJ2, Paracelis, Mountain Province, Philippines"
"ANONAT BHS 1; ANONAT BHS 2; PALITOD BHS; BUTIGUE BHS; BANANAO BHS; BANTAY BHS; BURINGAL BHS 1; BURINNGAL BHS 2; BACARRI BHS; BUNOT BHS 1; BUNOT BHS 2; POBLACION BHS,PARACELIS, MOUNTAIN PROVINCE,Philippines",12.6679167,123.9881642,"Pan-Philippine Hwy, Philippines"
"BONTOC MUNICIPAL HEALTH OFFICE,POBLACION, BONTOC MOUNTAIN PROVINCE,Philippines",17.086063,120.9769961,"3XPG+CQH, Bontoc, Mountain Province, Philippines"
"BONTOC GENERAL HOSPITAL,UPPER CALUTTIT,BONTOC, MT. PROVINCE,Philippines",17.0937205,120.9765537,"3XVG+FJM, Maligcong Rd, Bontoc, 2616 Mountain Province, Philippines"
"Barlig Municipal Health Office,Poblacion, Barlig Mountain Province,Philippines",17.086063,120.9769961,"3XPG+CQH, Bontoc, Mountain Province, Philippines"
"Lias BHS,Lias, Barlig Mountain Province,Philippines",17.0834266,121.1441902,"Lias, Barlig, Mountain Province, Philippines"
"Kadaclan Cluster (Chupac BHS, Lunas BHS), Kaleo BHS, Ogo-og BHS,Kadaclan, Barlig Mountain Province,Philippines",17.0589194,121.1970557,"355W+HR7, Kadaclan Rd, Barlig, Mountain Province, Philippines"
"TADIAN MHSO,PAPATAYAN, POBLACION TADIAN MT. PROVINCE,Philippines",17.0041364,120.8240513,"Poblacion, Tadian, Mountain Province, Philippines"
"BALAOA BHS, BANAAO BHS, BANTEY BHS, BATAYAN BHS, BUNGA BHS, CADAD-ANAN BHS, CAGUBATAN BHS, DACUDAC BHS, DUAGAN BHS, KAYAN EAST BHS, KAYAN WEST BHS, LENGA BHS, LUBON BHS, MABALITE BHS, MASLA BHS, PANDAYAN BHS, SUMADEL BHS & TUE BHS,TADIAN MT. PROVINCE,Philippines",16.9858241,120.799639,"Kayan East, Tadian, Mountain Province, Philippines"
"SADANGA LYING-IN CLINIC,POBLACION,SADANGA, MOUNTAIN PROVINCE,Philippines",17.0902441,120.977594,"Poblacion, Bontoc, Mountain Province, Philippines"
"TABRAK,ANABEL,TABRAK,ANABEL, MOUNTAIN PROVINCE ,Philippines",17.1681373,121.026298,"Tabrak, Sadanga, Mountain Province, Philippines"
"NATONIN MUNICIPAL HEALTH OFFICE,POBLACION, NATONIN, MOUNTAIN PROVINCE,Philippines",17.1813739,121.4041181,"Paracelis Municipal Hall, Paracelis-Calaccad Road, 2625, Paracelis, Mountain Province, Philippines"
"BANAO BHS; TONGLAYAN BHS; PUDO BHS; ALUNOGAN BHS;STA. ISABEL BHS; BUTAC BHS; BALANGAO BHS; BATNONG BHS; PANGTOR BHS; TUBOY BHS; TAPPO BHS; SALIOK BHS; MADUCAYAN BHS,NATONIN, MOUNTAIN PROVINCE,Philippines",17.1620905,121.2740813,"Maducayan, Natonin, Mountain Province, Philippines"
"SAGADA MUNICIPAL HEALTH OFFICE,PATAY, SAGADA, MOUNTAIN PROVINCE,Philippines",17.0845855,120.9003709,"3WM2+R4Q, Sagada, Mountain Province, Philippines"
"KILONG BHS; MADONGO BHS; AGUID BHS; AMBASING BHS; ANKILENG BHS; SUYO BHS,TADIAN, MOUNTAIN PROVINCE,Philippines",17.0511222,120.8972593,"Ankileng, Sagada, Mountain Province, Philippines"
"BAUKO MUNICIPAL HEALTH OFFICE,BAUKO,MOUNTAIN PROVINCE,Philippines",16.9959739,120.8225482,"XRWF+92M, Tagudin - Cervantes - Sabangan Rd, Tadian, Mountain Province, Philippines"
"LUIS HORA MEMORIAL REGIONAL HOSPITAL ,BAUKO,MOUNTAIN PROVINCE,Philippines",16.9810322,120.8537722,"XVJ3+CG6, Tagudin - Cervantes - Sabangan Rd, Bauko, Mountain Province, Philippines"
"BESAO MUNICIPAL HEALTH OFFICE,BESAO,MOUNTAIN PROVINCE,Philippines",17.0845855,120.9003709,"3WM2+R4Q, Sagada, Mountain Province, Philippines"
"SABANGAN MUNICIPAL HEALTH OFFICE,SABANGAN,MOUNTAIN PROVINCE,Philippines",17.0056882,120.9221792,"2W4C+7VF Sabangan Municipal Building, Municipal Hall, Lansangang Halsema, Sabangan, 2622 Lalawigang Bulubundukin, Philippines"
"CITY HEALTH OFFICE,CALAOAAN CANDON CITY, ILOCOS SUR,Philippines",17.1713116,120.4419742,"5CCR+GQH, Candon, Ilocos Sur, Philippines"
"ILOCOS SUR MEDICAL CENTER,HEROES BYPASS RD, BRGY. PARIOC PRIMERO, CANDON CITY,Philippines",17.1655772,120.4510606,"Heroes ByPass Road Brgy, Parioc Primero, Candon, Ilocos Sur, Philippines"
"ALILEM RHU,Alilem Daya, Alilem Ilocos sur,Philippines",16.8979225,120.5423015,"Alilem Daya (Pob.), Ilocos Sur, Philippines"
"BANAYOYO RHU,POBLACION, BANAYOYO ILOCOS SUR,Philippines",17.2350729,120.4991209,"Banayoyo, Ilocos Sur, Philippines"
"BANTAY RHU,POBLACION, BANAYOYO ILOCOS SUR,Philippines",17.5811275,120.3902355,"H9JR+F35, Manor, Bantay, Ilocos Sur, Philippines"
"CABUGAO RHU,POBLACION, RIZAL, CABUGAO, ILOCOS SUR,Philippines",17.791812,120.4540193,"Cabugao, Ilocos Sur, Philippines"
"CAOAYAN RHU,BRGY. DON DIMAS QUERUBIN, CAOAYAN, ILOCOS SUR,Philippines",17.5412396,120.3853425,"Don Dimas Querubin (Pob.), Caoayan, Ilocos Sur, Philippines"
"CERVANTES RHU,BRGY. ROSARIO, CERVANTES, ILOCOS SUR,Philippines",17.0110714,120.734995,"Cervantes, Ilocos Sur, Philippines"
"GALIMUYOD RHU,BRGY. POBLACION, GALIMUYOD, ILOCOS SUR,Philippines",17.1889596,120.5221524,"Galimuyod, Ilocos Sur, Philippines"
"GREGORIO DEL PILAR RHU,BRGY. POBLACION SUR, GREGORIO DEL PILAR, ILOCOS SUR,Philippines",17.1419365,120.6142365,"Poblacion Sur, Gregorio del Pilar, Ilocos Sur, Philippines"
"LIDLIDDA RHU,BRGY. POBLACION NORTE, LIDLIDDA, ILOCOS SUR,Philippines",17.272915,120.5178343,"Poblacion Norte, Lidlidda, Ilocos Sur, Philippines"
"MAGSINGAL RHU,ZONE 2, BRGY. SAN JULIAN, MAGSINGAL, ILOCOS SUR,Philippines",17.7011147,120.4019775,"San Juan, PC22+CQX, Bantay, Ilocos Sur, Philippines"
"NAGBUKEL RHU,BRGY. POBLACION EAST, NAGBUKEL, ILOCOS SUR,Philippines",17.4462569,120.5254936,"CGWG+G55, Road, Poblacion East, Nagbukel, Ilocos Sur, Philippines"
"NARVACAN RHU,LIMMANSANGAN, BRGY. MARGAAY, NARVACAN, ILOCOS SUR,Philippines",17.4292148,120.4688858,"Margaay, Narvacan, Ilocos Sur, Philippines"
"QUIRINO RHU,DAZON ST., BRGY. POBLACION, QUIRINO, ILOCOS SUR,Philippines",16.2700424,121.5370003,"Quirino, Philippines"
"SALCEDO RHU,BRGY. POBLACION NORTE, SALCEDO, ILOCOS SUR,Philippines",17.151086,120.5362932,"5G2P+CGM, Salcedo, Ilocos Sur, Philippines"
"SAN EMILIO RHU,BRGY. CABAROAN, SAN EMILIO, ILOCOS SUR,Philippines",17.2427519,120.5797128,"Cabaroan (Pob.), San Emilio, Ilocos Sur, Philippines"
"SAN ESTEBAN RHU,RECLUSADO ST., BRGY. SAN RAFAEL, SAN ESTEBAN, ILOCOS SUR,Philippines",17.3311657,120.4473612,"8CJW+FW9, San Esteban, Ilocos Sur, Philippines"
"SAN ILDEFONSO RHU,BRGY. POBLACION EAST, SAN ILDEFONSO, ILOCOS SUR,Philippines",17.623733,120.394161,"San Ildefonso, San Ildefonso, Ilocos Sur, Philippines"
"SAN JUAN RHU,BRGY. LIRA, SAN JUAN, ILOCOS SUR,Philippines",17.7418012,120.4559076,"San Juan, Ilocos Sur, Philippines"
"SAN VICENTE RHU,BRGY. POBLACION, SAN VICENTE, ILOCOS SUR,Philippines",17.5927813,120.3751237,"Bantay - San Vicente Rd, San Vicente, Ilocos Sur, Philippines"
"SANTA RHU,QUIRINO DIST., SANTA, ILOCOS SUR,Philippines",17.5135816,120.447285,"Santa, Ilocos Sur, Philippines"
"SANTA CATALINA RHU,BRGY. POBLACION, SANTA CATALINA, ILOCOS SUR,Philippines",17.5875232,120.3622866,"Poblacion, Santa Catalina, Ilocos Sur, Philippines"
"SANTA CRUZ,RIZAL ST., BRGY. POBLACION WESTE, SANTA CRUZ, ILOCOS SUR,Philippines",17.0845032,120.4490852,"Poblacion Weste, Santa Cruz, Ilocos Sur, Philippines"
"SANTA LUCIA RHU,BRGY. ANGKILENG, SANTA LUCIA, ILOCOS SUR,Philippines",17.115825,120.4485,"Santa Lucia, Santa Lucia, Ilocos Sur, Philippines"
"SANTA MARIA RHU,BRGY. POBLACION SUR, SANTA MARIA, ILOCOS SUR,Philippines",17.3637661,120.4771364,"9F7G+GV2, Santa Maria, Ilocos Sur, Philippines"
"SANTIAGO RHU,BRGY. POBLACION NORTE, SANTIAGO, ILOCOS SUR,Philippines",17.2983858,120.4484859,"Poblacion Norte, Santiago, Ilocos Sur, Philippines"
"SANTO DOMINGO RHU,BRGY. SAN PABLO, SANTO DOMINGO, ILOCOS SUR,Philippines",17.6446171,120.4242401,"Santo Domingo, Ilocos Sur, Philippines"
"SIGAY RHU,BRGY. POBLACION, SIGAY, ILOCOS SUR,Philippines",17.03398,120.5969758,"Sigay, Ilocos Sur, Philippines"
"SINAIT RHU,BRGY. MACABIAG, SINAIT, ILOCOS SUR,Philippines",17.8612922,120.4516055,"Macabiag (Pob.), Sinait, Ilocos Sur, Philippines"
"SUGPON RHU,BAGUITAN ST., BRGY. BALBALAYANG, SUGPON, ILOCOS SUR,Philippines",16.851119,120.5221524,"Balbalayang (Pob.), Ilocos Sur, Philippines"
"SUYO RHU,BRGY. POBLACION, SUYO, ILOCOS SUR,Philippines",16.9658223,120.5624474,"Suyo, Ilocos Sur, Philippines"
"TAGUDIN RHU,REAL ST., BRGY. RIZAL, TAGUDIN, ILOCOS SUR,Philippines",16.937513,120.443433,"Tagudin, Tagudin, Ilocos Sur, Philippines"
"VIGAN CITY HEALTH OFFICE,QUEZON AVE., BRGY. I, VIGAN CITY,Philippines",17.5704898,120.3873299,"Vigan City, Ilocos Sur, Philippines"
"ISPH - GABRIELA SILANG,QUIRINO BLVD., BRGY. TAMAG, VIGAN CITY,Philippines",17.5535027,120.3797408,"Quirino Boulevard, Vigan City, Ilocos Sur, Philippines"
"CITY HEALTH OFFICE (DIALYSIS CENTER),SAN FERNANDO  CITY, LA UNION,Philippines",16.6163572,120.3181452,"J889+G7R, F. Ortega Hwy, San Fernando, La Union, Philippines"
"Rural Health Unit,Poblacion, San Gabriel, La Union,Philippines",16.6821537,120.409835,"Poblacion, San Gabriel, La Union, Philippines"
"AGOO MUNICIPAL HEALTH OFFICE,STA BARBARA AGOO, LA UNION,Philippines",16.3246658,120.3550172,"Santa Barbara, 89F4+V26, Agoo, 2504 La Union, Philippines"
"LA UNION MEDICAL CENTER,NAZARENO AGOO, LA UNION,Philippines",16.346667,120.364038,"89W7+MJ7, Agoo, La Union, Philippines"
"Balaoan Municipal Health Office and Birthing Clinic,Antonino, Balaoan, La Union,Philippines",16.8268888,120.4088688,"McArthur Highway, Barangay Antonino, RCG5+QG5, Balaoan, 2517 La Union, Philippines"
"BAGULIN RURAL HEALTH UNIT,PUROK 1, SUYO, BAGULIN LA UNION,Philippines",16.6148678,120.330314,"Purok 1, San Fernando, La Union, Philippines"
"Bangar Municipal Health Office and Birthing Clinic,Ma. Cristina East, Bangar, La Union,Philippines",16.8982089,120.431679,"Bangar, La Union, Philippines"
"SANTO TOMAS RHU AND MATERNAL-CHILD CARE & BIRTHING CLINIC,PATAC, SANTO TOMAS, LA UNION,Philippines",16.2796724,120.4069537,"Patac, Santo Tomas, La Union, Philippines"
"BURGOS RURAL HEALTH UNIT,BILIS,BURGOS LA UNION,Philippines",16.5215599,120.4558473,"GFC4+J8H, Burgos, La Union, Philippines"
"ARINGAY RURAL HEALTH UNIT,POBLACION, ARINGAY, LA UNION,Philippines",16.39333,120.3622866,"Poblacion, Aringay, La Union, Philippines"
"DO?A DONATA AGUILA MEMORIAL HEALTH CENTER,CENTRAL EAST, BAUANG, LA UNION,Philippines",16.5243713,120.3334609,"Central East, Bauang, La Union, Philippines"
"NAGUILIAN RURAL HEALTH UNIT,Ortiz, Naguilian, La Union,Philippines",16.5336081,120.3911059,"Ortiz, Naguilian, La Union, Philippines"
"Rosario Rural Health Unit,Poblacion East, Rosario, La Union,Philippines",16.2287152,120.4867867,"Rosario Public Market, Rosario, La Union, Philippines"
"SUDIPEN RHU AND BIRTHING CLINIC,POBLACION, LA UNION,Philippines",16.8998156,120.4882604,"Sudipen, La Union, Philippines"
"PUGO RURAL HEALTH UNIT,POBLACION WEST, PUGO, LA UNION,Philippines",16.3296762,120.4732056,"Poblacion West, Pugo, La Union, Philippines"
"SANTOL RURAL HEALTH UNIT,SITIO PADAYAO, POBLACION, SANTOL, LA UNION,Philippines",16.4292934,120.3478646,"National Highway, C8HX+P49, Caba City, 2502 La Union, Philippines"
"LUNA MUNICIPAL HEALTH OFFICE,VICTORIA, LUNA, LA UNION,Philippines",16.5265027,120.3296632,"Bauang Municipal Hall, 2501 MacArthur Hwy, Central West, Bauang, La Union, Philippines"
"TUBAO RHU AND BIRTHING HOME,Poblacion,Tubao,La Union,Philippines",16.325785,120.3706991,"89GC+878, Agoo, La Union, Philippines"
"SAN JUAN RURAL HEALTH UNIT,Sta Rosa De Lima Street, Ili Sur, San Juan, La Union,Philippines",16.6722798,120.3372465,"Sta. Rosa de Lima Rd, San Juan, La Union, Philippines"
"CABA RURAL HEALTH UNIT,POBLACION SUR, CABA, LA UNION,Philippines",16.4292934,120.3478646,"National Highway, C8HX+P49, Caba City, 2502 La Union, Philippines"
"Bacnotan Rural Health Unit,Poblacion, Bacnotan, La Union ,Philippines",16.720858,120.348866,"Bacnotan, Bacnotan, La Union, Philippines"
"Adams Municipal Health Office,Poblacion,Adams Ilocos Norte,Philippines",18.4590814,120.9187827,"Adams, Ilocos Norte, Philippines"
"Bacarra Municipal Health Office,Brgy. 1 Sta.Rita, Bacarra, Ilocos Norte,Philippines",18.252029,120.610734,"Rizal Boulevard, Santa Rita, 7J26+R79, Bacarra, 2916 Ilocos Norte, Philippines"
"Badoc Municipal Health Office,Brgy. 7A Sta. Cruz Norte, Badoc, Ilocos Norte,Philippines",17.9207855,120.4754648,"WFCG+858, Campos Street, Badoc, Ilocos Norte, Philippines"
"Bangui Municipal Health Office,Brgy. Sentinela, Bangui Ilocos Norte,Philippines",18.5364442,120.7649793,"GQP7+HXH, Bangui, Ilocos Norte, Philippines"
"Banna Municipal Health Office,Brgy 4 Marcos, Banna, Ilocos Norte,Philippines",17.9794126,120.6530775,"XMH3+Q68, Sanag St, Banna, Ilocos Norte, Philippines"
"Burgos Municipal Health Office,Brgy. Poblacion, Burgos, Ilocos Norte,Philippines",16.0553174,119.8670563,"Town Proper, Burgos, Pangasinan, Philippines"
"Carasi Rural Health Unit,Brgy. Barbaquezo,Carasi,Ilocos Norte,Philippines",18.2130413,120.8728615,"Carasi, Ilocos Norte, Philippines"
"City Health Office-City of Batac,TAFT STREET BRGY. 4 NALUPTA CITY OF BATAC, ILOCOS NORTE,Philippines",18.063775,120.5620356,"3H76+GR3, Taft St, Brgy. 4 Nalupta, Batac, 2906 Ilocos Norte, Philippines"
"RURAL HEALTH UNIT OF DINGRAS,BRGY ALBANO, DINGRAS, ILOCOS NORTE,Philippines",18.1023763,120.700492,"4P22+X55, Do?a Josefa Llanes Escoda National Hwy, Dingras, Ilocos Norte, Philippines"
"DUMALNEG MUNICIPAL HEALTH OFFICE,BRGY. CABARITAN, DUMALNEG, ILOCOS NORTE,Philippines",18.5220809,120.8086476,"GRC5+RFJ, Bangui-Dumalneg Rd, Dumalneg, Ilocos Norte, Philippines"
"LAOAG CITY HEALTH OFFICE,BRGY 10 A.G. TUPAZ STREET LAOAG CITY,ILOCOS NOTE,Philippines",18.1944336,120.5920338,"Laoag City Hall, Tupaz Street, corner Balintawak, Laoag City, 2900 Ilocos Norte, Philippines"
"MARCOS RURAL HEALTH UNIT,BRGY. LYDIA MARCOS, ILOCOS NORTE,Philippines",18.0203828,120.7014477,"Lydia, 2PC2+5H4, Marcos, 2907 Ilocos Norte, Philippines"
"NUEVA ERA RURAL HEALTH UNIT,BRGY. POBLACION, NUEVA ERA, ILOCOS NORTE,Philippines",17.9171507,120.6635821,"WM87+VC8, Nueva Era, Ilocos Norte, Philippines"
"Pagudpud Rural Health Unit,POBLACION II, PAGUDPUD, ILOCOS NORTE,Philippines",18.5874677,120.8220827,"Pagudpud, Ilocos Norte, Philippines"
"PAOAY MUNICIPAL HEALTH OFFICE,BRGY. 18 VERONICA PAOAY, ILOCOS NORTE,Philippines",18.0479363,120.5182664,"2GX9+58C, National Highway, Paoay, 2902 Ilocos Norte, Philippines"
"PASUQUIN INFIRMARY,BRGY. SAN ISIDRO, PASUQUIN, ILOCOS NORTE,Philippines",18.3164871,120.6101284,"8J86+H3R, Pan-Philippine Hwy, Pasuquin, Ilocos Norte, Philippines"
"PIDDIG RURAL HEALTH UNIT,BRGY. 2 ANAO PIDDIG ILOCOS NORTE,Philippines",18.1651337,120.7179755,"5P89+355, Piddig, Ilocos Norte, Philippines"
"Pinili Municipal Health Office,Brgy. 2 Pagdilao, Pinili, Ilocos Norte,Philippines",17.9529831,120.5269483,"XG3G+5QW, Pinili, Ilocos Norte, Philippines"
"San Nicolas Rural health Unit,Bgy.3, San Nicolas, Ilocos Norte,Philippines",18.1470823,120.5854674,"San Nicolas, Ilocos Norte, Philippines"
"SOLSONA RURAL HEALTH UNIT,BRGY. LAURETA, SOLSONA, ILOCOS NORTE,Philippines",18.102185,120.7809676,"Solsona, Ilocos Norte, Philippines"
"Vintar Municipal Health Office,Brgy.2 San Nicolas,Vintar, Ilocos Norte,Philippines",18.1731913,120.5945849,"5HFV+7RG, Manor Road, Corner Ilocos Norte- Apayao Road, Barangay 3, San Ildefonso, San Nicolas, 2901 Ilocos Norte, Philippines"
"MAPANDAN RHU,FIRETREE ST., POBLACION, MAPANDAN, PANGASINAN,Philippines",16.0271171,120.4538917,"Fire Tree, Mapandan, Pangasinan, Philippines"
"BALUNGAO RHU,T. BASCOS ST. POBLACION BALUNGAO, PANGASINAN,Philippines",15.8996049,120.6715793,"T. Bascos St, Balungao, Pangasinan, Philippines"
"ANDA RHU -CONFERENCE,BURGOS ST.,POBLACION,ANDA,PANGASINAN,Philippines",16.2889167,119.9483879,"Burgos St, Anda, Pangasinan, Philippines"
"DON LEOPOLDO SISON CONVENTION CENTER LEFT WING,POBLACION, ALAMINOS CITY, PANGASINAN,Philippines",16.1561289,119.9782458,"5X4H+F75, Quezon Ave, Poblacion, Alaminos, 2404 Pangasinan, Philippines"
"RHU SAN FABIAN,ZARATE ST.SAN FABIAN PANGASINAN,Philippines",16.1199419,120.4029967,"Zarate St, San Fabian, Pangasinan, Philippines"
"RHU I BANI,Happy Valley Poblacion Bani, Pangasinan,Philippines",16.1929985,119.8486985,"Happy Valley, Bani, Pangasinan, Philippines"
"RHU BINALONAN,POBLACION, BINALONAN, PANGASINAN,Philippines",16.045124,120.5922894,"2HWR+2WV, Binalonan, Pangasinan, Philippines"
"RHU STA. BARBARA,POBLACION NORTE, STA. BARBARA, PANGASINAN,Philippines",16.0013999,120.4031228,"2C23+H65, Santa Barbara, Pangasinan, Philippines"
"MANGALDAN MUNICIPAL HALL GROUNDS,POBLACION, MANGALDAN,PANGASINAN,Philippines",16.0650193,120.4011911,"Mangaldan, Pangasinan, Philippines"
"SAN CARLOS CITY HEALTH OFFICE,PALARIS ST. SAN CARLOS CITY, PANGASINAN,Philippines",15.9251278,120.3470482,"San carlos city, Palaris St, San Carlos City, Pangasinan, Philippines"
"RHU I LINGAYEN,Avenida St. West, Poblacion Lingayen,Philippines",16.0216562,120.2336069,"26CM+MC9, Avenida Rizal E Rd, Poblacion, Lingayen, 2401 Pangasinan, Philippines"
"RHU II LINGAYEN,DOMALANDAN CENTER, LINGAYEN PANGASINAN,Philippines",16.0063499,120.1983905,"Barangay Domalandan Center, 16 Lingayen - Labrador Rd, Bayan ng Lingayen, 2401 Pangasinan, Philippines"
"DR. LAUREANO S. PEREZ MEMORIAL CLINIC,AMB. ROXAS ST. GUISET SUR, SAN MANUEL, PANGASINAN,Philippines",16.0639156,120.6705076,"3M7C+H66, San Manuel, Pangasinan, Philippines"
"Tourism Building,Poblacion, Manaoag, Pangasinan,Philippines",16.0493442,120.4847242,"Poblacion, Manaoag, Pangasinan, Philippines"
"RHU 1 Asingan,Poblacion East, Asingan, Pangasinan,Philippines",16.00275,120.6699399,"J, Millan St, Asingan, Pangasinan, Philippines"
"RHU BOLINAO I,GERMINAL, BOLINAO, PANGASINAN,Philippines",16.3722218,119.8925961,"036, Bolinao, 2406 Pangasinan, Philippines"
"SUAL RHU,Agbayani St. Poblacion Sual, Pangasinan,Philippines",16.0679756,120.0944016,"Agbayani St, Sual, Pangasinan, Philippines"
"Mariano Marcos Memorial Hospital and Medical Center,City of Batac Ilocos Norte,Philippines",18.0604061,120.5591422,"Brgy, 3H65+5M6, 6, Batac, Ilocos Norte, Philippines"
"Ilocos Sur Medical Center,Heroes Bypass Rd. Parioc Primero, Candon City,Philippines",17.1655772,120.4510606,"Heroes ByPass Road Brgy, Parioc Primero, Candon, Ilocos Sur, Philippines"
"Ilocos Sur Provincial Hospital - Gabriela Silang,Quirino Boulevard, Vigan City, Ilocos Sur,Philippines",17.5535027,120.3797408,"Quirino Boulevard, Vigan City, Ilocos Sur, Philippines"
"Ilocos Training and Regional Medical Center,Parian City of San Fernando, La Union,Philippines",16.5912317,120.3178203,"MacArthur Hwy, San Fernando, 2500 La Union, Philippines"
"Region 1 Medical Center,Arellano, Bani St. Dagupan City, Pangasinan,Philippines",16.0485481,120.3415708,"28XR+CJ8, Arellano St, Dagupan, 2400 Pangasinan, Philippines"
"Conrado F. Estrella Regional Medical and Trauma Center,Government Center Carmay East Rosales, Pangasinan,Philippines",15.9071298,120.6228659,"Government Center, Rosales, Pangasinan, Philippines"
"Pangasinan Provincial Hospital,Bolingit, San Carlos City, San Carlos Pangasinan,Philippines",15.954235,120.349795,"X83X+MWV, San Carlos City, Pangasinan, Philippines"
"Ilocos Norte PHO,Andres Bldg. Brgy. 23 P Gomez St. Laoag City, Ilocos Norte,Philippines",18.2000818,120.6011903,"P. Gomez, Laoag City, Ilocos Norte, Philippines"
"Ilocos Sur PHO,Barangay Tamag City of Vigan, Ilocos Sur,Philippines",17.5594845,120.3847504,"H95M+QWR, Quirino Boulevard, Vigan City, Ilocos Sur, Philippines"
"La Union PHO,1st Flr. Provincial Capitol, City of San Fernando, La Union,Philippines",16.6131163,120.318498,"J879+69X, Aguila Road, San Fernando, La Union, Philippines"
"Pangasinan PHO,2nd Flr. Palaris Bldg. Capitol Compound, Lingayen, Pangasinan,Philippines",16.0335031,120.2315743,"Provincial Capitol, Maniboc, Lingayen, Pangasinan, Philippines"
"Dagupan CHO,City Hall Complex A.B. Fernandez Ave., Dagupan City, Pangasinan,Philippines",16.0432998,120.3333124,"Dagupan, Pangasinan, Philippines"
"RHU BASCO,Nu?ez Street,Brgy. Kaychanarianan,Basco, Batanes ,Philippines",20.4489948,121.9693872,"CXX9+HQR, Nunez St, Basco, Batanes, Philippines"
"Itbayat Covered Court,National Rd, Brgy Sta Lucia, Itbayat, Batanes ,Philippines",20.738306,121.850905,"Santa Lucia, Itbayat, Batanes, Philippines"
"RHU Ivana,National Road, Brgy Radiwan, Ivana, Batanes,Philippines",20.3745361,121.9161281,"National Rd, Batanes, Philippines"
"Rural Health Unit And Birthing Home of Mahatao,National Road, Brgy. Uvoy, Mahatao, Batanes,Philippines",20.3954854,121.9615308,"Uvoy (Pob.), Mahatao, Batanes, Philippines"
"St. Vincent Ferrer Parish Church,National Road, Brgy. Sinakan, Sabtang, Batanes,Philippines",20.3330066,121.8736944,"Sinakan, Sabtang, Batanes, Philippines"
"RHU ABULUG,Centro, Abulug, Cagayan,Philippines",18.4457146,121.4549286,"CFW3+7XM, Abulug, Cagayan, Philippines"
"RHU ALCALA,Centro norte, zone 4 alcala cagayan,Philippines",17.9070854,121.6539774,"Centro Norte (Pob.), Alcala, Cagayan, Philippines"
"municipal function hall,centro west allacapan cagayan,Philippines",18.1992993,121.5512722,"Centro West (Pob.), Allacapan, Cagayan, Philippines"
"RHU AMULUNG,Centro, Amulung, Cagayan,Philippines",17.8360948,121.7228954,"RPPF+C5J, Amulung, Cagayan, Philippines"
"RHU APARRI,centro 3 aparri cagayan,Philippines",18.3590122,121.6398966,"Centro 3 (Pob.), Aparri, Cagayan, Philippines"
"RHU BAGGAO,Zone 5, San Jose,Baggao,Cagayan,Philippines",17.8889546,121.8710262,"Alcala - Baggao Rd, Baggao, Cagayan, Philippines"
"VYQ GYMNASIUM,Centro East, Ballesteros, Cagayan,Philippines",18.391055,121.5113064,"Centro East (Pob.), Ballesteros, Cagayan, Philippines"
"RHU BUGUEY,CENTRO, BUGUEY, CAGAYAN,Philippines",18.2879245,121.831485,"7RQJ+5H9, Buguey, Cagayan, Philippines"
"RHU CALAYAN,POBLACION, CALAYAN, CAGAYAN,Philippines",19.2612453,121.4763221,"St. Bartholomew Parish Church, Calayan, Cagayan, Philippines"
"RHU Camalaniugan ,Dacallafugu, Camalaniugan, Cagayan,Philippines",18.274278,121.6881918,"Dacal-Lafugu, Camalaniugan, Cagayan, Philippines"
"RHU CLAVERIA,PUROK 4, BARANGAY CENTRO 2, CLAVERIA, CAGAYAN,Philippines",18.6014185,121.0911646,"Claveria, Cagayan, Philippines"
"RHU ENRILE  ,SAN JOSE ENRILE , CAGAYAN ,Philippines",17.5581087,121.6931319,"HM5V+67R, Enrile, Cagayan, Philippines"
"RHU GONZAGA,Smart, Gonzaga, Cagayan,Philippines",18.2414828,122.1064668,"Gonzaga, Cagayan, Philippines"
"RHU IGUIG,Centro Ajat, Iguig, Cagayan,Philippines",17.753175,121.7363579,"Iguig, Cagayan, Philippines"
"LAL-LO MULTI-PURPOSE CENTER ,Centro, Lal-lo, Cagayan,Philippines",18.1988757,121.6618194,"5MX6+HP4, Lal-lo, Cagayan, Philippines"
"RHU LASAM,Centro 1, Lasam, Cagayan,Philippines",18.0797048,121.6079849,"Lasam - Magapit Rd, Cagayan, Philippines"
"RHU PAMPLONA,centro pamplona cagayan,Philippines",18.4266461,121.3312882,"Pamplona, Cagayan, Philippines"
"RHU PE?ABLANCA,Camasi, Pe?ablanca, Cagayan,Philippines",17.6268646,121.7797716,"JQGH+PWM, Pe?ablanca, 3502 Cagayan, Philippines"
"RHU PIAT,Poblacion II, Piat, Cagayan,Philippines",17.7931441,121.4756108,"Poblacion II, Piat, Cagayan, Philippines"
"MALAUEG GYMNASIUM ,BARANGAY POBLACION RIZAL, CAGAYAN,Philippines",17.8277893,121.3770336,"Rizal, Cagayan, Philippines"
"RHU SOLANA,Centro South East Solana Cagayan,Philippines",17.6465047,121.6903299,"Centro Southeast (Pob.), Solana, Cagayan, Philippines"
"RHU SANTA ANA,PINES DRIVE, PUROK 2, CENTRO, SANTA ANA, CAGAYAN,Philippines",18.4816082,122.1556749,"Santa Ana, Cagayan, Philippines"
"RHU STA. PRAXEDES,CENTRO 1 ,STA. PRAXEDES, CAGAYAN,Philippines",18.5613348,120.9919493,"Pan-Philippine Hwy, Santa Praxedes, Cagayan, Philippines"
"RHU SANTA TERESITA,zone 7, CENTRO EAST, SANTA TERESITA, CAGAYAN,Philippines",18.2478061,121.9036468,"Santa Teresita Bridge, Santa Teresita, Cagayan, Philippines"
"RHU STO. NINO,ZONE 5, CENTRO NORTE, STO. NINO, CAGAYAN,Philippines",17.8879804,121.5689902,"VHQ9+5HX, Santo Ni?o, Cagayan, Philippines"
"TUAO RHU 1 GYMNASSIUM,CENTRO 2, TUAO CAGAYAN,Philippines",17.699209,121.5038763,"Tuao, Cagayan, Philippines"
"TUAO RHU 2 GYMNASSIUM,PUROK 1 NARUANGAN, TUAO, CAGAYAN,Philippines",12.6679167,123.9881642,"Pan-Philippine Hwy, Philippines"
"SM DOWNTOWN LEVEL 3,UGAC NORTE, TUGUEGARAO CITY, CAGAYAN,Philippines",17.6175361,121.7166959,"Ugac Norte, Tuguegarao, Cagayan, Philippines"
"RHU ALICIA,MAGSAYSAY ALICIA ISABELA,Philippines",16.7777908,121.6957632,"QMHW+486, Alicia, Isabela, Philippines"
"RHU ANGADANAN,CENTRO III, ANGADANAN, ISABELA,Philippines",16.7593431,121.7396352,"QP5Q+PVJ, Angadanan, Isabela, Philippines"
"RHU AURORA,BACARRA ST., STA ROSA, AURORA,ISABELA,Philippines",16.9901825,121.6351952,"XJRP+33G, Bacarra St., Aurora, Isabela, Philippines"
"RHU BENITO SOLIVEN AND BIRTHING CENTER,DISTRICT 2 BENITO SOLIVEN, ISABELA,Philippines",16.9884394,121.9615715,"103 Junction Naguilian - San Mariano - Palanan Rd, Benito Soliven, Isabela, Philippines"
"RHU BURGOS AND BIRTHING CENTER,SAN ANTONINO BURGOS ISABELA,Philippines",17.0955125,121.7094844,"3PW5+6Q5 San Antonino Burgos Isabela, Burgos, Isabela, Philippines"
"RHU CABAGAN,CENTRO POB. CABAGAN ISABELA,Philippines",17.4273919,121.765433,"CQG8+X53, Cabagan, Isabela, Philippines"
"MHO CABATUAN and BIRTHING CENTER,CENTRO CABATUAN, ISABELA,Philippines",16.9277583,121.662532,"Cabatuan, Isabela, Philippines"
"CITY HEALTH OFFICE - II,MARANA 1ST, CITY OF ILAGAN, ISABELA,Philippines",17.1423204,121.8880348,"City Health Office, Rizal St, Ilagan, Isabela, Philippines"
"CAUAYAN CITY HEALTH OFFICE-I,CABARUAN CAUAYAN CITY,Philippines",16.9527216,121.7663438,"XQ38+3GQ, Cauayan City, Isabela, Philippines"
"RHU Cordon,Magsaysay, Cordon, Isabela,Philippines",16.6783497,121.4684703,"Cordon, Isabela, Philippines"
"RHU Delfin Albano,Ragan Sur Delfin Albano,Philippines",17.3067131,121.7850761,"8Q4P+M2P, Delfin Albano, Isabela, Philippines"
"Dinapigue Municipal Health Office,Digumased, Dinapigue, Isabela,Philippines",16.5835805,122.2086579,"Digumased (Pob.), Dinapigue, Isabela, Philippines"
"RHU DIVILACAN,Dimapula Divilacan Isabela,Philippines",17.3316926,122.2909078,"Dimapula (Pob.), Isabela, Philippines"
"RHU ECHAGUE,SAN FABIAN ECHAGUE ISABELA,Philippines",16.7274017,121.6881918,"San Fabian, Echague, Isabela, Philippines"
"PGBICH, JONES, ISABELA,ZONE 6, BRGY 1, JONES, ISABELA,Philippines",16.9817005,121.7739866,"Pan-Philippine Hwy, Isabela, Philippines"
"BHS CENTRO,Centro 2, Luna, Isabela ,Philippines",16.9674091,121.7245332,"Centro 2 (Pob.), Luna, Isabela, Philippines"
"RHU-MACONACON, ISABELA,BARANGAY FELY,Philippines",17.362137,122.1064668,"Maconacon, Isabela, Philippines"
"Mallig Integrated Rural Health Unit and Birthing Center,Centro 2, Mallig, Isabela,Philippines",16.8840605,122.123251,"V4MF+J8C, National Road, Santa Filomina, San Mariano, 3332 Isabela, Philippines"
"RHU NAGUILIAN,BARANGAY QUEZON, NAGUILIAN, ISABELA,Philippines",17.0229167,121.8353889,"2RFP+556, Unnamed Rd, Naguilian, Isabela, Philippines"
"RHU PALANAN,DICABISAGAN WEST, PALANAN, ISABELA,Philippines",17.0341572,122.367428,"Dicabisagan West (Pob.), Palanan, Isabela, Philippines"
"RHU QUEZON,ISABELA,PUROK 1,ARELLANO QUEZON ISABELA,Philippines",17.3820633,121.6015754,"Quezon, Isabela, Philippines"
"RHU-QUIRINO, ISABELA,LUNA, QUIRINO, ISABELA,Philippines",17.129378,121.7197515,"4PH9+QW2, Quirino, Isabela, Philippines"
"RHU RAMON,BUGALLON PROPER, RAMON, ISABELA ,Philippines",16.7796792,121.531933,"QGHJ+VQF, Ramon, Isabela, Philippines"
"REINA MERCEDES RURAL HEALTH UNIT AND BIRTHING CENTER,tallungan,reina mercedes,isabela,Philippines",16.9765805,121.8263689,"Tallungan (Pob.), Isabela, Philippines"
"RHU ROXAS,Rizal Roxas Isabela,Philippines",17.1211519,121.6201825,"4JCC+F37, Rizal Street, Rizal, Roxas, Isabela, Philippines"
"RHU SAN AGUSTIN,Masaya Centro, San Agustin, Isabela,Philippines",16.51826,121.735419,"Santiago - San Agustin Rd, Isabela, Philippines"
"RHU SAN GUILLERMO,Purok 7,Centro 1, San Guillermo,Isabela,Philippines",16.7394525,121.8164031,"Centro 1 (Pob.), San Guillermo, Isabela, Philippines"
"RHU SAN ISIDRO,P1, Gomez, San Isidro, Isabela ,Philippines",16.7337934,121.6352354,"113 Ramon, San Isidro, Isabela, Philippines"
"SAN MANUEL COMMUNITY CENTER,DISTRICT 3 SAN MANUEL, ISABELA,Philippines",17.0157946,121.629736,"District 3 (Pob.), San Manuel, Isabela, Philippines"
"RHU SAN MARIANO & BIRTHING CENTER,STA. FILOMENA SAN MARIANO,ISABELA,Philippines",16.8840605,122.123251,"V4MF+J8C, National Road, Santa Filomina, San Mariano, 3332 Isabela, Philippines"
"RHU-SAN MATEO,AGLIPAY ST., BARANGAY 4, SAN MATEO, ISABELA,Philippines",16.8767261,121.5940773,"San Mateo, Isabela, Philippines"
"RHU SAN PABLO,Poblacion San Pablo Isabela,Philippines",17.4615083,121.7943475,"San Pablo, Isabela, Philippines"
"RHU SANTA MARIA,Poblacion 01,Sta.Maria, Isabela,Philippines",17.4768522,121.6967438,"Santa Maria, Isabela, Philippines"
"RHU SANTO TOMAS,Brgy. Bulinao, Santo Tomas, Isabela,Philippines",17.3555172,121.7309452,"Santo Tomas, Isabela, Philippines"
"RHU TUMAUINI,Brgy. Lingaling Tumauini, Isabela,Philippines",17.2839384,121.8178269,"7RM9+H4G, Tumauini, Isabela, Philippines"
"CITY HEALTH OFFICE,SAN ANDRES, SANTIAGO CITY,Philippines",16.7146185,121.5535426,"PH73+RCV, Santiago - Tuguegarao Rd, Santiago, 3311 Isabela, Philippines"
"ROBINSON'S PLACE SANTIAGO (EVERY THURSDAY),MABINI, SANTIAGO CITY,Philippines",16.696443,121.5626885,"Mabini, Santiago, Isabela, Philippines"
"BHC-CENTRO EAST,CENTRO EAST, SANTIAGO CITY,Philippines",16.6902403,121.5491316,"Centro East, Santiago, Isabela, Philippines"
"BHC-CENTRO WEST,CENTRO WEST, SANTIAGO CITY,Philippines",16.6920292,121.5462773,"Centro West, Santiago, Isabela, Philippines"
"BHC-CALAO EAST,CALAO EAST, SANTIAGO CITY,Philippines",16.6924727,121.559121,"Calao East, Santiago, Isabela, Philippines"
"BHC-CALAO WEST,CALAO WEST, SANTIAGO CITY,Philippines",16.6941859,121.5509155,"Calao West, Santiago, Isabela, Philippines"
"BHC-CABULAY,CABULAY, SANTIAGO CITY,Philippines",16.7697698,121.422761,"Cabulay, Santiago, Isabela, Philippines"
"BHC-LUNA,LUNA, SANTIAGO CITY,Philippines",16.6968106,121.5584998,"Santiago, Isabela, Philippines"
"RHU ALFONSO CASTA?EDA,Brgy. Lublub, Alfonso Casta?eda, Nueva Vizcaya,Philippines",15.7934849,121.3026046,"V75V+8Q, Alfonso Casta?eda, Nueva Vizcaya, Philippines"
"RHU AMBAGUIO,Poblacion,Ambaguio,Nueva Vizcaya,Philippines",16.5793584,121.0564425,"Ambaguio, Nueva Vizcaya, Philippines"
"LGU GYM,Poblacion, Aritao, Nueva Vizcaya,Philippines",16.2970603,121.0363768,"Poblacion, Aritao, Nueva Vizcaya, Philippines"
"RHU BAGABAG,San Pedro,Bagabag,Nueva,Vizcaya,Philippines",16.6074813,121.2549505,"J743+XXW, Bagabag, Nueva Vizcaya, Philippines"
"RHU BAMBANG,Buag, Bambang, Nueva Vizcaya,Philippines",16.3801162,121.1051594,"94J4+23V, Bambang, Nueva Vizcaya, Philippines"
"La Torre,DMP, Bayombong,  Nueva Vizcaya ,Philippines",16.5019232,121.1408585,"La Torre, Bayombong, Nueva Vizcaya, Philippines"
"RHU DIADI,Poblacion, Diadi Nueva Vizcaya,Philippines",16.2950903,121.0333261,"72WM+28P, Aritao, 3704 Nueva Vizcaya, Philippines"
"RHU MALASIN,Malasin, Dupax del Norte, Nueva Vizcaya,Philippines",16.3055323,121.105695,"8444+678, DM Junction - Malasin Rd, Dupax Del Norte, Nueva Vizcaya, Philippines"
"LGU GYM,Dopaj, Dupax del Sur Nueva Vizcaya,Philippines",16.3146839,121.2939692,"877V+VHH, Kasibu, Nueva Vizcaya, Philippines"
"RHU KASIBU,Poblacion, Kasibu  Nueva Vizcaya,Philippines",16.2950903,121.0333261,"72WM+28P, Aritao, 3704 Nueva Vizcaya, Philippines"
"RHU KAYAPA,Tubongan, Kayapa, Nueva Vizacaya,Philippines",16.4809002,120.9532123,"Tubongan, Kayapa, Nueva Vizcaya, Philippines"
"LGU GYM,Aurora, Quezon, Nueva Vizcaya,Philippines",16.3146839,121.2939692,"877V+VHH, Kasibu, Nueva Vizcaya, Philippines"
"RHU SOLANO,Roxas, Solano, Nueva Vizcaya,Philippines",16.5285122,121.1809587,"G5HJ+C94, Solano, 3709 Nueva Vizcaya, Philippines"
"RHU SANTA FE,Consuelo, Baliling, Santa Fe, Nueva Vizcaya,Philippines",16.18972,120.937401,"Consuelo, Santa Fe, Nueva Vizcaya, Philippines"
"RHU VILLAVERDE,Poblacion, Villaverde, Nueva Vizcaya,Philippines",16.6061604,121.1481284,"Villaverde, Nueva Vizcaya, Philippines"
"RHU AGLIPAY,PUROK 2 SAN LEONARDO,AGLIPAY,QUIRINO,Philippines",16.5016991,121.6026364,"San Leonardo (Cabarroguis), Aglipay, Quirino, Philippines"
"RHU CABARROGUIS,ZAMORA, CABARROGUIS QUIRINO,Philippines",16.5106281,121.5290635,"GG6H+7J4, Cabarroguis, Quirino, Philippines"
"RHU DIFFUN,ANDRES BONIFACIO DIFFUN QUIRINO,Philippines",16.6015325,121.5055958,"JG24+J69, Diffun, Quirino, Philippines"
"MUNICIPAL GYM,Poblacion Sur, Maddela, Quirino,Philippines",16.3424573,121.6896172,"Poblacion Sur, Maddela, Quirino, Philippines"
"NAGTIPUNAN RHU AND BIRTHING CENTER,PUROK 01, PONGGO, NAGTIPUNAN, QUIRINO,Philippines",16.2231955,121.5997835,"Ponggo, Nagtipunan, Quirino, Philippines"
"LAKAS BAYAN CENTER,LGU COMPOUND MAGSAYSAY, SAGUDAY, QUIRINO,Philippines",16.5352312,121.5427093,"Magsaysay (Pob.), Quirino, Philippines"
"Batanes General Hospital,National Road, Barangay Kayhuvokan, Basco, Batanes,Philippines",20.4503019,121.9707851,"FX2C+48F, Basco, Batanes, Philippines"
"Cagayan Valley Medical Center,Dalan na Pagayaya, Carig Sur, Tuguegarao City,Philippines",17.6565673,121.7466281,"Regional Government Center, 1 Dalan na Pagayaya, Carig Regional Center, Tuguegarao, Cagayan, Philippines"
"Regional Health Services 02,National Highway, Caggay,Tuguegarao, Cagayan,Philippines",17.6392131,121.7376373,"JPQQ+M3V, NATL HIGHWAY, Tuguegarao, Cagayan, Philippines"
"Southern Isabela Medical Center,Corner Recto Avenue, Zamora St., Rosario,Santiago City, Isabela,Philippines",16.680089,121.546748,"MGJW+2MQ, Zamora St, Santiago, 3311 Isabela, Philippines"
"Region 2 Training and Medical Center,Magsaysay, Bayombong, Nueva Vizcaya,Philippines",16.4960153,121.0851019,"Magsaysay, Bayombong, Nueva Vizcaya, Philippines"
"Treatment Rehabilitation Center,Centro San Antonio, Ilagan, Philippines,Philippines",17.0895015,121.9501551,"Centro - San Antonio, Ilagan, Isabela, Philippines"
"BATANES PHO,Agan Building, Abad St., Basco, Batanes,Philippines",20.4485629,121.9709177,"Abad St, Basco, Batanes, Philippines"
"Tug.City People's General Hospital,Luna Street, 3500 Tuguegarao,Philippines",17.6125027,121.7236189,"38, 3500 Luna St, Tuguegarao, 3500 Cagayan, Philippines"
"Cagayan United Doctors Medical Center of Tuguegarao City, Inc.,No. 7 Bagay Road, Caritan Centro, Tuguegarao City, Cagayan,Philippines",17.6328393,121.71283,"7 Bagay Road, Tuguegarao, Cagayan, Philippines"
"Divine Mercy Wellness Center, Inc.,Arellano cor. Burgos St., Brgy. Centro 06, Tuguegarao City, Cagayan,Philippines",17.6128361,121.7231512,"JP7F+47J, Tuguegarao, Cagayan, Philippines"
"Dr. Ronald P. Guzman Medical Center, Inc.,Enrile Blvd, Caggay,Tuguegarao City, Cagayan,Philippines",17.6500144,121.7560552,"MQ24+2C3, Tuguegarao, Cagayan, Philippines"
"St. Paul Hospital of Tuguegarao, Inc.,Luna Extension, Ugac Norte,Tuguegarao City, Cagayan,Philippines",17.614047,121.707546,"48 Ugac Hwy, Tuguegarao, 3500 Cagayan, Philippines"
"Alfonso Ponce Enrile Memorial District Hospital,Brgy. Smart, Gonzaga, Cagayan,Philippines",18.2577872,121.9968945,"Alfonso Ponce Enrile Memorial District Hospital, Mabini St, Gonzaga, 3513 Cagayan, Philippines"
"Aparri Provincial Hospital,National Highway, Toran, Aparri, Cagayan,Philippines",18.3089548,121.6580136,"8M55+H6J, Aparri, Cagayan, Philippines"
"Ballesteros District Hospital,Cabuluan West, Ballesteros, Cagayan,Philippines",18.417719,121.5010683,"CG92+3CP, Ballesteros, Cagayan, Philippines"
"Lasam District Hospital,Ignacio B. Jurado, Lasam, Cagayan,Philippines",18.0634683,121.6096377,"Centro, Callao, Lasam, Cagayan, Philippines"
"Nuestra Se?ora De Piat District Hospital,Maguilling, Piat, Cagayan,Philippines",17.7697764,121.5255815,"Maguilling, Cagayan, Philippines"
"Tuao District Hospital,Purok 4, Bulagao, Tuao, Cagayan,Philippines",17.750084,121.4516124,"Bulagao, Tuao, Cagayan, QF22+2JQ, Tuao, Cagayan, Philippines"
"Isabela United Doctors Medical Center, Inc,National Highway, Brgy. Cabaruan, Cauayan City, Isabela,Philippines",16.9485628,121.7718245,"National Highway, Brgy. Cabaruan Cauayan City, Isabela, AH26, Cauayan, Isabela, Philippines"
"Dumlao Hospital,#28 S. Osme?a Street, Vira, Roxas, Isabela,Philippines",17.1203795,121.621116,"Sergio, 3320 Pres. S. Osme?a Street, Roxas, 3320 Isabela, Philippines"
"Manango Hospital,National Highway, San Antonio, Alicia, Isabela,Philippines",14.9275093,120.0896313,"San Antonio, Zambales, Philippines"
"Soller General Hospital, Inc.,#220 San Bernabe Street, Vira, Roxas, Isabela,Philippines",17.119599,121.621938,"San Bernabe Street, Vira, Roxas, 3320, Isabela, Roxas, Isabela, Philippines"
"Cauayan District Hospital,Rosemarie Reyes Street, District 1, Cauayan City, Isabela,Philippines",16.9185932,121.7683614,"Cauayan City, Isabela, Philippines"
"City of Ilagan Medical Center,Barangay Lullutan, City of Ilagan, Isabela,Philippines",17.1490805,121.8632125,"4VX7+J7P, Ilagan - Delfin Albano - Mallig Rd, Ilagan, Isabela, Philippines"
"Echague District Hospital,Ipil, Echague, Isabela,Philippines",16.6897851,121.6437328,"MJQV+WF9, Echague, 3309 Isabela, Philippines"
"Manuel A. Roxas District Hospital,San Antonio, Roxas, Isabela,Philippines",17.0855287,121.6176029,"Roxas, Isabela, 3JP9+629, Roxas, Isabela, Philippines"
"Milagros Albano District Hospital,Ngarag, Cabagan, Isabela,Philippines",17.421363,121.7808036,"Ngarag, Isabela, Philippines"
"Governor Faustino N. Dy Sr. Memorial Hospital,Maharlika Road, Calamagui 2nd, City of Ilagan, Isabela,Philippines",17.132186,121.868816,"4VJ9+VGG, Ilagan, Isabela, Philippines"
"San Mariano Community Hospital,Sta. Filomena,San Mariano, Isabela,Philippines",16.9840274,122.0012141,"X2M2+JF8, San Mariano, Isabela, Philippines"
"Palanan Station Hospital,Dicabisagan West,Palanan, Isabela,Philippines",17.0649316,122.425341,"National Road, Centro West, 3C7G+X4G, Palanan, 3334 Isabela, Philippines"
"PLTCI - Luis A. Tiam Medical Center,Bascaran, Solano, Nueva Vizcaya,Philippines",16.5348204,121.2244849,"G6MF+WQH, Solano, Nueva Vizcaya, Philippines"
"Batanes General Hospital,BATANES,Basco,Philippines",20.4503019,121.9707851,"FX2C+48F, Basco, Batanes, Philippines"
"Itbayat District Hospital,BATANES,Itbayat,Philippines",20.7867435,121.8404701,"QRPR+M5X, Itbayat, 3905 Batanes, Philippines"
"Aguas Maternity and General Hospital,CAGAYAN,Ballesteros,Philippines",18.4068124,121.5178518,"CG49+P4H, Ballesteros, Cagayan, Philippines"
"Alcala Municipal Hospital,CAGAYAN,Alcala,Philippines",17.9057767,121.6553141,"Alcala Municipal Hospital, Alcala, Cagayan, Philippines"
"Alfonso Ponce Enrile Memorial District Hospital,CAGAYAN,Gonzaga,Philippines",18.2577872,121.9968945,"Alfonso Ponce Enrile Memorial District Hospital, Mabini St, Gonzaga, 3513 Cagayan, Philippines"
"Aparri Provincial Hospital,CAGAYAN,Aparri,Philippines",18.3089548,121.6580136,"8M55+H6J, Aparri, Cagayan, Philippines"
"Apayao Cagayan Medical Center Inc.,CAGAYAN,Abulug,Philippines",18.3462853,121.4008818,"No. 07 National Highway, Abulug, 3517 Cagayan, Philippines"
"Baggao District Hospital,CAGAYAN,Baggao,Philippines",17.8747934,121.8975274,"VVFX+W26, Baggao, Cagayan, Philippines"
"Ballesteros District Hospital,CAGAYAN,Ballesteros,Philippines",18.417719,121.5010683,"CG92+3CP, Ballesteros, Cagayan, Philippines"
"Cagayan Valley Medical Center,CAGAYAN,Tuguegarao City,Philippines",17.6565673,121.7466281,"Regional Government Center, 1 Dalan na Pagayaya, Carig Regional Center, Tuguegarao, Cagayan, Philippines"
"Calayan Infirmary,CAGAYAN,Calayan,Philippines",19.2607479,121.4818467,"National Road, Poblacion, 7F6J+7PX, Calayan, 3520 Cagayan, Philippines"
"Charles W. Selby Memorial Hospital, Inc.,CAGAYAN,Aparri,Philippines",18.35602,121.636121,"15 Diego Silang St, Aparri, Cagayan, Philippines"
"CUDMC,CAGAYAN,Tuguegarao City,Philippines",17.6239131,121.721047,"7 Bagay Road, Tuguegarao, 3500 Cagayan, Philippines"
"Divine Mercy Wellness Center, Inc.,CAGAYAN,Tuguegarao City,Philippines",17.6128361,121.7231512,"JP7F+47J, Tuguegarao, Cagayan, Philippines"
"Dr. Domingo S. De Leon General Hospital,CAGAYAN,Tuguegarao City,Philippines",17.6102772,121.7282549,"141-A Bonifacio St, Tuguegarao, 3500 Cagayan, Philippines"
"Dr. Ronald P. Guzman Medical Center, Inc.,CAGAYAN,Tuguegarao City,Philippines",17.6500144,121.7560552,"MQ24+2C3, Tuguegarao, Cagayan, Philippines"
"Dr. Tomas L. Nolasco Sr. Memorial Hospital - Reproductive Health Center,CAGAYAN,Gattaran,Philippines",18.0736485,121.8790306,"Gattaran, Cagayan, Philippines"
"Fr. Gerry Filippetto Memorial Foundation Hospital, Inc.,CAGAYAN,Sta. Ana,Philippines",14.577338,121.0115233,"H2G6+WJJ, Cagayan St, Santa Ana, Manila, Metro Manila, Philippines"
"Gattaran Emergency Hospital,CAGAYAN,Gattaran,Philippines",18.0345196,121.731239,"2PMJ+RF5, Gattaran, Cagayan, Philippines"
"Grupo Medico De Dios Inc.,CAGAYAN,Camalaniugan,Philippines",18.2607098,121.7030555,"7P63+76M, Camalaniugan, Cagayan, Philippines"
"Holy Infant Hospital Tuguegarao Inc.,CAGAYAN,Tuguegarao City,Philippines",17.6157294,121.7260653,"50 Washington St, Tuguegarao, 3500 Cagayan, Philippines"
"Lasam District Hospital,CAGAYAN,Lasam,Philippines",18.0634683,121.6096377,"Centro, Callao, Lasam, Cagayan, Philippines"
"Lyceum of Aparri Hospital,CAGAYAN,Aparri,Philippines",18.3467608,121.6432499,"8JWV+P75, National Road, Aparri, Cagayan, Philippines"
"Matilde A. Olivas District Hospital,CAGAYAN,Camalaniugan,Philippines",18.2504996,121.6869406,"GEN. E., BATALLA,, 7M2P+5QW, Camalaniugan, Cagayan, Philippines"
"Northern Cagayan District Hospital,CAGAYAN,Sanchez Mira,Philippines",18.6051902,121.1724924,"J54C+3XH, Pan-Philippine Hwy, Sanchez Mira, Cagayan, Philippines"
"Nuestra Se?ora De Piat District Hospital,CAGAYAN,Piat,Philippines",18.2489629,121.8787833,"Cagayan, Philippines"
"Puyaon General Hospital,CAGAYAN,Camalaniugan,Philippines",18.263558,121.687333,"Bulala , 3510 Camalaniugan , Cagayan, Camalaniugan, Cagayan, Philippines"
"Regional Health Service 2 Hospital,CAGAYAN,Tuguegarao City,Philippines",17.6131813,121.7270206,"Tuguegarao, Cagayan, Philippines"
"St. Paul Hospital of Tuguegarao, Inc.,CAGAYAN,Tuguegarao City,Philippines",17.614047,121.707546,"48 Ugac Hwy, Tuguegarao, 3500 Cagayan, Philippines"
"Sta. Ana Community Hospital,CAGAYAN,Sta. Ana,Philippines",18.4580163,122.1437552,"F45V+6G2, Santa Ana, Cagayan, Philippines"
"Tuao District Hospital,CAGAYAN,Tuao,Philippines",17.750084,121.4516124,"Bulagao, Tuao, Cagayan, QF22+2JQ, Tuao, Cagayan, Philippines"
"Tuguegarao City People's General Hospital,CAGAYAN,Tuguegarao City,Philippines",17.6127417,121.7295649,"Tuguegarao City People's General Hospital, Tuguegarao, Cagayan, Philippines"
"A.M. Yumena General Hospital Inc.,ISABELA,Roxas,Philippines",17.1030766,121.6169002,"Roxas, Isabela, Philippines"
"BBCSS Pediatric Medical and Surgical Clinic,ISABELA,San Mateo,Philippines",16.8796825,121.5851485,"3318 Quezon, San Mateo, Isabela, Philippines"
"Cabatuan Family Hospital, Inc.,ISABELA,Cabatuan,Philippines",16.9545559,121.6699604,"Centro (POB.) , 3315 Cabatuan , Isabela, Cabatuan, Isabela, Philippines"
"Camp Melchor F. Dela Cruz Station Hospital,ISABELA,Gamu,Philippines",17.0734744,121.8651235,"3VF8+92Q, Gamu, Upi, Gamu, Isabela, Philippines"
"Cauayan District Hospital,ISABELA,Cauayan City,Philippines",16.9185932,121.7683614,"Cauayan City, Isabela, Philippines"
"Cauayan Family Hospital,ISABELA,Cauayan City,Philippines",16.917895,121.787903,"Prenza, WQ9Q+552, Cauayan City, 3305 Isabela, Philippines"
"Cauayan Medical Specialists Hospital,ISABELA,Cauayan City,Philippines",16.936189,121.7704278,"WQPC+C5R, Burgos St, Cauayan City, 3305 Isabela, Philippines"
"Dayos-Pascual Medical Clinic,ISABELA,Roxas,Philippines",17.121903,121.620147,"Rang-ayan, Roxas, 3320, Isabela, Roxas, Isabela, Philippines"
"Delfin Albano Community Hospital,ISABELA,Delfin Albano,Philippines",17.2592492,121.7423434,"Delfin Albano, Isabela, Philippines"
"Demano's Medical and Pediatric Clinic,ISABELA,Ramon,Philippines",16.7835722,121.5356127,"Ramon, Isabela, Philippines"
"Dr. Ester R. Garcia Medical Center, Inc.,ISABELA,Cauayan City,Philippines",16.935639,121.762703,"Gov., F. N. Dy., San Fermin Cauayan City, Isabela, WQP7+734, Cauayan City, 3305 Isabela, Philippines"
"Dr. Victor S. Villaroman Memorial Hospital,ISABELA,Ilagan City,Philippines",17.1462961,121.8903416,"4VWR+G48, Ilagan, 3300 Isabela, Philippines"
"Dumlao Hospital,ISABELA,Roxas,Philippines",17.1203795,121.621116,"Sergio, 3320 Pres. S. Osme?a Street, Roxas, 3320 Isabela, Philippines"
"Echague District Hospital,ISABELA,Echague,Philippines",16.6897851,121.6437328,"MJQV+WF9, Echague, 3309 Isabela, Philippines"
"Elvin U. Masigan Integrated Memorial Hospital,ISABELA,Sta. Maria,Philippines",16.9753758,121.8107079,"Isabela, Philippines"
"Gambalan Hospital,ISABELA,Delfin Albano,Philippines",17.2904411,121.7848506,"Ragan Sur (POB.) , 3326 Delfin Albano (Magsaysay) , Isabela, Delfin Albano, Isabela, Philippines"
"God's Will Medical Hospital,ISABELA,Cauayan City,Philippines",16.9383297,121.769524,"WQQ9+8RJ, Pres. Roxas, Cauayan City, Isabela, Philippines"
"Governor Faustino N. Dy Sr. Memorial Hospital,ISABELA,Ilagan City,Philippines",17.1381186,121.8734492,"Ilagan, Isabela, Philippines"
"Isabela Doctors General Hospital, Inc.,ISABELA,Ilagan City,Philippines",17.1179786,121.863466,"4V97+59W, AH26, Ilagan, 3300 Isabela, Philippines"
"Isabela South Specialists Hospital, Inc.,ISABELA,Echague,Philippines",16.6962812,121.6423971,"MJWR+GX6, Ipil Bridge, Echague, Isabela, Philippines"
"Isabela United Doctor Medical Center, Inc.,ISABELA,Cauayan City,Philippines",16.9485628,121.7718245,"National Highway, Brgy. Cabaruan Cauayan City, Isabela, AH26, Cauayan, Isabela, Philippines"
"Javonillo Hospital, Inc.,ISABELA,Cordon,Philippines",16.67142,121.461879,"Cordon, 3312 Isabela, Philippines"
"Juvelo Family Clinic,ISABELA,San Mateo,Philippines",16.8801334,121.5867133,"VHJP+3M4, Santiago - Tuguegarao Rd, San Mateo, Isabela, Philippines"
"Lucas-Paguila Medical Hospital Incorporated,ISABELA,Alicia,Philippines",16.771941,121.7179265,"QPC9+Q5F, Alicia, Isabela, Philippines"
"Manango Hospital,ISABELA,Alicia,Philippines",16.773506,121.6988509,"QMFX+773, Alicia, 3306 Isabela, Philippines"
"Manuel A. Roxas District Hospital,ISABELA,Roxas,Philippines",17.0855287,121.6176029,"Roxas, Isabela, 3JP9+629, Roxas, Isabela, Philippines"
"Milagros Albano District Hospital,ISABELA,Cabagan,Philippines",17.3607797,121.8790306,"Cabagan, Isabela, Philippines"
"Padron - Tibio Medical Clinic,ISABELA,Aurora,Philippines",16.9914975,121.6364954,"Pasuquin Street, San Jose, Aurora, 3316, Isabela, Aurora, Isabela, Philippines"
"Palanan Station Hospital,ISABELA,Palanan,Philippines",17.0649316,122.425341,"National Road, Centro West, 3C7G+X4G, Palanan, 3334 Isabela, Philippines"
"Piedad Medical Clinic,ISABELA,San Mateo,Philippines",16.884184,121.587875,"Rizal Street, Centro, San Mateo, Isabela, VHMQ+M4H, San Mateo, Isabela, Philippines"
"Prospero G. Bello Integrated Community Hospital,ISABELA,Jones,Philippines",16.5695633,121.6987474,"HM9X+RFH, Jones, Isabela, Philippines"
"Providers Multi-Purpose Cooperative Medical Center,ISABELA,Naguilian,Philippines",17.0215729,121.8536144,"1AH26 National Highway, Naguilian, 3302 Isabela, Philippines"
"Que Medical Clinic, Lying-In and Pharmacy,ISABELA,Tumauini,Philippines",17.2770781,121.8790306,"17 Laman Street, Tumauini, 3325 Isabela, Philippines"
"Quezon Community Hospital,ISABELA,Quezon,Philippines",17.3121915,121.6022614,"8J62+VWC, Quezon, Isabela, Philippines"
"San Antonio City of Ilagan Integrated Hospital,ISABELA,Ilagan City,Philippines",17.1381186,121.8734492,"Ilagan, Isabela, Philippines"
"San Mariano Community Hospital,ISABELA,San Mariano,Philippines",16.9840274,122.0012141,"X2M2+JF8, San Mariano, Isabela, Philippines"
"San Mateo Integrated Community Hospital,ISABELA,San Mateo,Philippines",16.8817923,121.5843791,"VHJM+PQ6, Isabela, San Mateo, Rizal, Philippines"
"San Mateo Multicare Hospital, Inc,ISABELA,San Mateo,Philippines",16.879252,121.586713,"Quirino St.,, Barangay 01, San Mateo, 3318 Isabela, Philippines"
"Soller General Hospital, Inc.,ISABELA,Roxas,Philippines",17.119599,121.621938,"San Bernabe Street, Vira, Roxas, 3320, Isabela, Roxas, Isabela, Philippines"
"The Ross Mauricio Memorial Hospital,ISABELA,Cauayan City,Philippines",16.9346438,121.7695407,"50 Quezon St, Cauayan City, Isabela, Philippines"
"Tomas-Cacal Medical Clinic and Hospital,ISABELA,Alicia,Philippines",16.7785657,121.6950889,"Quezon Street, Magsaysay (POB.) , 3306 Alicia , Isabela, Alicia, Isabela, Philippines"
"Tumauini Community Hospital,ISABELA,Tumauini,Philippines",17.2864566,121.8062267,"Tumauini, Isabela, Philippines"
"Adventist Hospital - Santiago City, Inc.,ISABELA,Santiago City,Philippines",16.6972697,121.5669481,"MHW8+WQ4, AH26, Santiago, 3311 Isabela, Philippines"
"Callang General Hospital and Medical Center, Inc.,ISABELA,Santiago City,Philippines",16.6925894,121.5504356,"MHV2+25M, Taguinod St, Santiago, 3311 Isabela, Philippines"
"Corado Medical Clinic and Hospital,ISABELA,Santiago City,Philippines",16.6863434,121.5499149,"Tandang Sora St, Santiago, 3311 Isabela, Philippines"
"De Vera Medical Center, Inc.,ISABELA,Santiago City,Philippines",16.6949365,121.5541208,"De Vera's Medical Center, 9 City Road, Santiago, 3311 Isabela, Philippines"
"Flores Memorial Medical Center,ISABELA,Santiago City,Philippines",16.690289,121.5509803,"16 Abauag St, Santiago, 3311 Isabela, Philippines"
"Renmar Specialists Hospital,ISABELA,Santiago City,Philippines",16.687268,121.5427797,"Patul Rd, Santiago, 3311 Isabela, Philippines"
"Santiago Medical City,ISABELA,Santiago City,Philippines",16.7283075,121.5497748,"PGHX+8WC, Santiago - Tuguegarao Rd, Santiago, Isabela, Philippines"
"Southern Isabela Medical Center,ISABELA,Santiago City,Philippines",16.680089,121.546748,"MGJW+2MQ, Zamora St, Santiago, 3311 Isabela, Philippines"
"Diadi Emergency Hospital,NUEVA VIZCAYA,Diadi,Philippines",16.6662512,121.3667442,"M988+GM5, Diadi, Nueva Vizcaya, Philippines"
"Dupax District Hospital,NUEVA VIZCAYA,Dupax del Norte,Philippines",16.3069594,121.1009002,"8442+Q9J, Dupax Del Norte, Nueva Vizcaya, Philippines"
"Indigenous People's Hospital Foundation of the Diocese of Bayombong,NUEVA VIZCAYA,Aritao,Philippines",16.483803,121.1506049,"F5M2+C5G, Bayombong, 3700 Nueva Vizcaya, Philippines"
"Kasibu Municipal Hospital,NUEVA VIZCAYA,Kasibu,Philippines",16.3010075,121.294266,"872V+CP2, Aritao - Quirino Rd, Kasibu, Nueva Vizcaya, Philippines"
"Lt. Tidang Memorial Hospital,NUEVA VIZCAYA,Kayapa,Philippines",16.3617423,120.888812,"9V6Q+MGV, Kayapa, Nueva Vizcaya, Philippines"
"Medical Mission Group Hospital and Health Services Cooperative,NUEVA VIZCAYA,Solano,Philippines",16.5271332,121.1824925,"Solano, Nueva Vizcaya, Philippines"
"Nueva Vizcaya Provincial Hospital,NUEVA VIZCAYA,Bambang,Philippines",16.3703013,121.0995166,"93CX+4RC, Bambang, 3702 Nueva Vizcaya, Philippines"
"PLTCI - Luis A. Tiam Medical Center,NUEVA VIZCAYA,Solano,Philippines",16.5348204,121.2244849,"G6MF+WQH, Solano, Nueva Vizcaya, Philippines"
"Region 2 Trauma and Medical Center,NUEVA VIZCAYA,Bayombong,Philippines",16.4830758,121.1342776,"AH26, Bayombong, 3700 Nueva Vizcaya, Philippines"
"Salubris Inc.,NUEVA VIZCAYA,Solano,Philippines",16.5222017,121.1934532,"G5CV+V9P, National Highway, Solano, Nueva Vizcaya, Philippines"
"Aglipay District Hospital,QUIRINO,Aglipay,Philippines",16.4464328,121.6054893,"CJW4+H5H, Aglipay, 3403 Quirino, Philippines"
"Diffun District Hospital,QUIRINO,Diffun,Philippines",16.5509744,121.4644146,"National Road, Andres Bonifacio, HF27+9QM, Diffun, 3401 Quirino, Philippines"
"Maddela District Hospital,QUIRINO,Maddela,Philippines",16.3286801,121.6589478,"8MH5+FHG, Maddela, Quirino, Philippines"
"Quirino Provincial Medical Center,QUIRINO,Cabarroguis,Philippines",16.5149664,121.5378276,"GG7Q+X4P, Cabarroguis, Quirino, Philippines"
"JOSE B. LINGAD MEMORIAL GENERAL HOSPITAL,MAC ARTHUR HI-WAY, DOLORES, CITY OF SAN FERNANDO, PAMPANGA,Philippines",15.034531,120.6846579,"2000 MacArthur Hwy, San Fernando, 2000 Pampanga, Philippines"
"AURORA MEMORIAL HOSPITAL,NATIONAL ROAD , BRGY. RESERVA, BALER, AURORA,Philippines",15.80681,121.5419809,"RG4R+PQH, Baler - Casiguran Rd, Baler, Aurora, Philippines"
"OSPITAL NG LUNGSOD NG SAN JOSE DEL MONTE,BAGONG BUHAY I, CSJDM BULACAN,Philippines",14.8544045,121.0573173,"Star mall, San Jose del Monte City, Bulacan, Philippines"
"DR. PAULINO J. GARCIA MEMORIAL RESEARCH AND MEDICAL CENTER,MABINI STREET, CABANATUAN CITY, NUEVA ECIJA,Philippines",15.489271,120.9727529,"Mabini Street Extension, Extension, Cabanatuan City, 3100 Nueva Ecija, Philippines"
"CABANATUAN CITY HALL,PHASE 2, BRGY. KAPITAN PEPE, CABANATUAN CITY,Philippines",15.4708975,120.9519813,"Corner M. De Leon Avenue and, FXC2+9Q5, 2nd St, Lungsod ng Cabanatuan, Nueva Ecija, Philippines"
"BALANGA WALTERMART MALL,Capitol Hills, Roman Highway Tenejero, Balanga City,Bataan,Philippines",14.6713358,120.5221106,"Bel- Air Street, Dona Maria Subdivision, City of Balanga, Bataan, Philippines"
"BATAAN PROVINCIAL HEALTH OFFICE,OLD CAPITOL BUILDING, CAPITOL COMPOUND, BALANGA CITY, BATAAN,Philippines",14.6757689,120.5295373,"MGGH+8R3, City of Balanga, Bataan, Philippines"
"IMMACULATE CONCEPTION MEDICAL CENTER OF CENTRAL LUZON,SAN JUAN ACCFA, CABANATUAN CITY,Philippines",15.4716662,120.9574074,"San Juan Accfa, 665 1st St, Cabanatuan City, Nueva Ecija, Philippines"
"DR. GLORIA D. LACSON GENERAL HOSPITAL,CASTELLANO, SAN LEONARDO, NUEVA ECIJA,Philippines",15.3177214,120.9371593,"8W9P+5VC Barangay, 180 National Highway, San Leonardo, Nueva Ecija, Philippines"
"NUEVA ECIJA DOCTORS HOSPITAL INC.,BRGY. SUMACAB ESTE, CABANATUAN CITY,Philippines",15.457642,120.9490884,"FW5X+3J4, AH26, Cabanatuan City, Nueva Ecija, Philippines"
"PREMIERE MEDICAL CENTER,MAHARLIKA HIGHWAY, BRGY. DAAN SARILE, CABANATUAN CITY,Philippines",15.5089073,120.9592092,"Pan-Philippine Hwy, Cabanatuan City, Nueva Ecija, Philippines"
"MANUEL V. GALLEGO CABANATUAN CITY GENERAL HOSPITAL,BRGY. ZULUETA, CABANATUAN CITY,Philippines",15.4781967,120.9564606,"FXH4+7HG, AH26, Zulueta, Cabanatuan City, Nueva Ecija, Philippines"
"Nueva Ecija Good Samaritan Health System Inc.,Burgos Avenue, Cabanatuan City,Philippines",15.4916672,120.973461,"Burgos Avenue, Cabanatuan City, Nueva Ecija, Philippines"
"Grace Hospital and Medical center,lot 2 blk 1 Quirino Hwy ext, san jose del monte bulacan,Philippines",14.8135791,121.0722562,"2, 1 Quirino Hwy, San Jose del Monte City, Bulacan, Philippines"
"SJP infirmary hospital,daang bario road, san jose del monte bulacan,Philippines",14.7978558,121.046509,"Daang Barrio Rd, San Jose del Monte City, Bulacan, Philippines"
"Rafael Lazatin Memorial Medical Center (Ronda Bakuna),Visitacion St. , Pampang, Angeles City,Philippines",15.1470877,120.5821596,"Visitacion St, Angeles, Pampanga, Philippines"
"Angeles Medical Center (Ronda Bakuna),Rizal Street, Agapito Del Rosario, Angeles City,Philippines",15.1448695,120.5894235,"Agapito del Rosario, Angeles, Pampanga, Philippines"
"Dr. Amando L. Garcia Medical Center (Ronda Bakuna),Rizal Street, Agapito Del Rosario, Angeles City,Philippines",15.1448695,120.5894235,"Agapito del Rosario, Angeles, Pampanga, Philippines"
"R.S. Clinic and Hospital (Ronda Bakuna),Rizal Street, Agapito Del Rosario, Angeles City,Philippines",36.746209,-5.1612251,"29400 Ronda, Mlaga, Spain"
"St. Catherine of Alexandria Foundation and Medical Center (Ronda Bakuna),Rizal Extension, Sto. Rosario, Angeles City,Philippines",15.1341708,120.5890639,"Sto. Rosario, Angeles, Pampanga, Philippines"
"Philippine Rehabilitation Institute (Ronda Bakuna),Arayat Boulevard, Pampang, Angeles City,Philippines",15.1483137,120.5768368,"4HXG+CP5, Arayat Blvd, Angeles, Pampanga, Philippines"
"Holy Family Medical Center (Ronda Bakuna),Sto. Entierro, Sto. Cristo, Angeles City,Philippines",15.1449853,120.5887029,"Angeles, Pampanga, Philippines"
"Jongno East Medical Center Inc. (Ronda Bakuna),Fil-Am Friendship Hi-way, Anunas, Angeles City,Philippines",15.1619796,120.5550703,"Lot 3 Block 9, GF, Unit J. Mugunghwa Bldg., Fil-Am Friendship Hwy, Angeles, 2009 Pampanga, Philippines"
"Sacred Heart Medical Center (Ronda Bakuna),Mc-arthur Hi-way, Sto Domingo, Angeles City,Philippines",15.1263756,120.5933832,"Santo Domingo, Angeles, Pampanga, Philippines"
"Angeles University Foundation Medical Center (Ronda Bakuna),Mc-arthur Hi-way, Lourdes Sur East, Angeles City,Philippines",15.1439538,120.5933795,"Lourdes Sur East, Angeles, Pampanga, Philippines"
"RHU 1 STO DOMINGO ANGELES CITY,San Martin St. , Sto Domingo, Angeles City,Philippines",15.130768,120.5954181,"San Martin St, Angeles, Pampanga, Philippines"
"RHU II LOURDES NORTHWEST ANGELES CITY,Kalayaan Rd. , Lourdes Northwest, Angeles City,Philippines",15.1442827,120.5842222,"Kalayaan Rd, Angeles, Pampanga, Philippines"
"RHU III LOURDES SUR EAST ANGELES CITY,Fajardo Street, Lourdes Sur East, Angeles City,Philippines",15.1437554,120.5945183,"D Fajardo St, Angeles, Pampanga, Philippines"
"RHU IV BALIBAGO ANGELES CITY,Balibago, Angeles City,Philippines",15.1342393,120.5924219,"4HMR+MXV, Lakandula 15street, Balibago, Angeles, Pampanga, Philippines"
"RHU V PANDAN ANGELES CITY,San Pablo Street, San Ignacio Subdivision, Pandan, Angeles City,Philippines",15.1467044,120.6044274,"815, 817 San Pablo St, Angeles, Pampanga, Philippines"
"RHU VI PULUNG CACUTUD ANGELES CITY,EPZA Center, Pulung Cacutud, Angeles City,Philippines",15.1701652,120.6148446,"5JC7+3W9, Angeles, Pampanga, Philippines"
"MUNICIPAL HEALTH OFFICE DIPACULAO,GEN. LUNA ST., BRGY. NORTH POBLACION, DIPACULAO, AURORA,Philippines",15.849961,121.537298,"Dipaculao, Dipaculao, Aurora, Philippines"
"MUNICIPAL HEALTH OFFICE MARIA AURORA,BRGY. 3, MARIA AURORA, AURORA,Philippines",15.7984684,121.4753652,"QFXG+94Q, Pantabangan - Canili - Basal - Baler Road, Maria Aurora, Aurora, Philippines"
"MUNICIPAL HEALTH OFFICE DINGALAN,BALER ST., BRGY. POBLACION, DINGALAN, AURORA,Philippines",15.733607,121.57125,"Baler, Aurora, Philippines"
"RURAL HEALTH UNIT DILASAG,SANTIAGO ST., BRGY. MASAGANA, DILASAG, AURORA,Philippines",16.4374658,122.151897,"Dilasag, Aurora, Philippines"
"RURAL HEALTH UNIT II DINALUNGAN,NATIONAL ROAD, BRGY. DIBARAYBAY, DINALUNGAN, AURORA,Philippines",16.1439662,121.9503356,"237 Baler - Casiguran Rd, Dinalungan, Aurora, Philippines"
"CASIGURAN RURAL HEALTH UNIT AND BIRTHING CLINIC VICENTE TEEPECUY,GOMEZ ST., BRGY. 03, CASIGURAN, AURORA,Philippines",16.2277929,122.0633195,"Casiguran, Aurora, Philippines"
"RURAL HEALTH UNIT SAN LUIS,MONDALA ST., BRGY. 2, SAN LUIS AURORA,Philippines",15.7201393,121.5220581,"PGCC+3R3, San Luis, Aurora, Philippines"
"DR. ANDRES ARAGON ANGARA HEALTH CENTER,PUROK 7, BRGY. SUKLAYIN, BALER, AURORA,Philippines",15.7581735,121.5456497,"1545'29. 12132'44., 2nd, Manila, Metro Manila, Philippines"
"PROVINCIAL HEALTH OFFICE-PRESIDENT RAMON MAGSAYSAY MEMORIAL HOSPITAL (PVOC),PALANGINAN, IBA, ZAMBALES,Philippines",15.3159914,119.9915712,"8X8R+9JW, Zambales - Pangasinan Rd, Iba, 2201 Zambales, Philippines"
"BATAAN GENERAL HOSPITAL AND MEDICAL CENTER,MANAHAN ST TENEJERO BALANGA CITY BATAAN,Philippines",14.6785305,120.5304283,"MGHJ+C57, Manahan St, City of Balanga, 2100 Bataan, Philippines"
"BATAAN PROVINCIAL HEALTH OFFICE,OLD CAPITOL BUILDING, CAPITOL COMPOUND, BALANGA CITY, BATAAN,Philippines",14.6757689,120.5295373,"MGGH+8R3, City of Balanga, Bataan, Philippines"
"BAGAC RURAL HEALTH UNIT,A. BONIFACIO ST BRGY IBABA, BAGAC, BATAAN,Philippines",14.5965183,120.3919296,"Barangay, H9WR+JQ3, Bagac, Bataan, Philippines"
"POBLACION BARANGAY HEALTH STATION,BURGOS HERMOSA BATAAN,Philippines",14.8269095,120.4242401,"Hermosa, Bataan, Philippines"
"LIMAY RURAL HEALTH UNIT,REAL ST CORNER MALVAR ST POBLACION LIMAY BATAAN,Philippines",14.5632477,120.596462,"HH7W+7HW, Limay, Bataan, Philippines"
"MARIVELES RURAL HEALTH UNIT 2,DOLORES ST CABCABEN, MARIVELES, BATAAN,Philippines",14.4359391,120.4902122,"Municipal Hall Mariveles, Avenue Of The Philippines Street, Mariveles, CFPR+93G, Mariveles, 2105 Bataan, Philippines"
"MARIVELES RURAL HEALTH UNIT 3,POBLACION, MARIVELES, BATAAN,Philippines",14.435875,120.490171,"Mariveles Municipal Hall, National Road corner Zalavarria Street, CFPR+83V, Mariveles, 2105 Bataan, Philippines"
"MARIVELES RURAL HEALTH UNIT 4,BATANGAS II, MARIVELES BATAAN,Philippines",14.4569135,120.7418589,"Mariveles - Manila, Philippines"
"ORANI RURAL HEALTH UNIT,REYES SUBD BRGY MULAWIN ORANI, BATAAN,Philippines",14.7973861,120.5020001,"Mulawin, Orani, Bataan, Philippines"
"ORION RURAL HEALTH UNIT,BRGY WAWA ORION BATAAN,Philippines",14.6241994,120.5832462,"JHFM+M7H, Orion, Bataan, Philippines"
"PILAR RURAL HEALTH UNIT,MUNICIPAL GROUND, PANILAO BATAAN,Philippines",14.6717842,120.5523748,"Panilao, Pilar, Bataan, Philippines"
"SAMAL RURAL HEALTH UNIT,A BONIFACIO WEST DAANG BAGO, SAMAL (BESIDE MUNICIPAL HALL),Philippines",14.7688398,120.5423291,"QG9R+GWP, Samal, 2113 Bataan, Philippines"
"DINALUPIHAN CIVIC CENTER,PADRE DANDAN, POBLACION, DINALUPIHAN (BESIDE RHU 1),Philippines",14.8690261,120.4686159,"VF99+JC9, Padre Dandan Street, Dinalupihan, 2110 Bataan, Philippines"
"MORONG COVERED COURT,BGRY POBLACION MORONG BATAAN (IN FRONT OF MUNICIPAL HALL),Philippines",14.6784132,120.2652727,"M7H8+946, Morong, Bataan, Philippines"
"1BATAAN FABAKUNA CENTER,CFRX+2GV LUZON AVENUE FREEPORT AREA OF BATAAN, MARIVELES, BATAAN,Philippines",14.4401414,120.4979674,"Freeport Area of Bataan, Mariveles, Bataan, Philippines"
"CITY HEALTH CENTER II,J.P.Rizal St. Pto.Rivas Itaas Balanga City, Bataan,Philippines",14.6832818,120.540863,"Do?a Domingo Building, MGMR+889, City of Balanga, 2100 Bataan, Philippines"
"CITY HEALTH CENTER III,MH del Pilar Cupang Proper Balanga City, Bataan,Philippines",14.6699288,120.5437189,"MH del Pilar St, City of Balanga, Bataan, Philippines"
"CITY HEALTH CENTER IV,Don Antonio St. Villa Lina Subd.Tenejero Balanga City,Bataan,Philippines",14.6784883,120.5247415,"MGHF+9VX, Florentino St, City of Balanga, Bataan, Philippines"
"CITY HEALTH CENTER I,Sampaguita St. San Jose Balanga City,Bataan,Philippines",14.676825,120.5356164,"Sampaguita St, Fourlane Commercial, City of Balanga, Bataan, Philippines"
"CITY HEALTH OFFICE,Jasmine St. Brgy. Do?a Francisca , Dilig Bldg. City Hall Annex Balanga City, Bataan,Philippines",14.6828317,120.5401366,"Jasmin St, City of Balanga, Bataan, Philippines"
"Waltermart Balanga,Capitol Hills, Roman Highway Tenejero, Balanga City,Bataan,Philippines",14.6712356,120.5232206,"Brgy. Tenejero along, Bataan Provincial Hwy, City of Balanga, 2100 Bataan, Philippines"
"ANGAT EVACUATION CENTER AND ISOLATION FACILITY,SAN ROQUE,ANGAT,BULACAN,Philippines",14.9340707,121.0191751,"San Roque, Angat, Bulacan, Philippines"
"SM BALIWAG,21 Do?a Remedios Trinidad High Way, Pagala, Baliwag Bulacan,Philippines",14.9601687,120.8903531,"21 Do?a Remedios Trinidad Hwy, Baliwag, 1630 Bulacan, Philippines"
"MONTESSORI DE SAGRADA FAMILIA,90 BS. Aquino Ave, Tangos, Baliwag Bulacan,Philippines",14.9691194,120.8963769,"090 Benigno S. Aquino Avenue, Baliwag, 3006 Bulacan, Philippines"
"BUREAU OF JAIL MANAGEMENT AND PENOLOGY- BOCAUE,P BURGOS ST. POBLACION, BOCAUE, BULACAN,Philippines",14.7987193,120.9213604,"35 L. Jaena, Bocaue, Bulacan, Philippines"
"DR. YANGA'S COLLEGES INC. (DYCI) MAIN CAMPUS,Wakas, Bocaue Bulacan, Mc Arthur Hi-way,Philippines",14.8011347,120.9212935,"182 MacArthur Hwy, Bocaue, 3018 Bulacan, Philippines"
"DR. YANGA'S COLLEGES, INC.-DYCI (GRADE SCHOOL DEPARTMENT),BI?ANG 2ND, Bocaue Bulacan, Mc Arthur Hi-way,Philippines",14.7978671,120.9288704,"MacArthur Hwy, Bocaue, Bulacan, Philippines"
"INTEGRATED SCHOOL OF MONTESSORI,Igulot Rd, BOCAUE, BULACAN,Philippines",14.794664,120.938068,"Igulot Road, Bocaue, 3018 Bulakan, Philippines"
"JESUS IS LORD COLLEGES FOUNDATION INC (JILCF),BUNLO 101 MC ARTHUR HIGHWAY,Philippines",14.7867497,120.9315482,"101 MacArthur Hwy, Bocaue, 3018 Bulacan, Philippines"
"ST PAUL COLLEGE OF BOCAUE,TURO, BOCAUE, BULACAN,Philippines",14.7999034,120.9381437,"QWXQ+X76, Bocaue, Bulacan, Philippines"
"EVACUATION CENTER,SAN JOSE BULAKAN, BULACAN,Philippines",14.79446,120.8798705,"QVVH+QWQ, San Jose del Monte City, Bulacan, Philippines"
"BAGUMBAYAN COVERED COURT,BAGUMBAYAN BULAKAN, BULACAN,Philippines",14.6083511,121.0824265,"Bagumbayan Fitness Center/Fire Station Building, 74 San Roque Street, Bagumbayan, Quezon City, 1110 Metro Manila, Philippines"
"BAMBANG ELEMENTARY SCHOOL,BAMBANG BULAKAN, BULACAN,Philippines",14.776108,120.881868,"QVGJ+CPX, Bagumbayan St, Bulakan, Bulacan, Philippines"
"BRGY TANAWAN COVERED COURT,TANAWAN, BUSTOS, BULACAN,Philippines",14.9549272,120.9230869,"Tanawan, Bustos, Bulacan, Philippines"
"BRGY TIBAGAN COVERED COURT,TIBAGAN, BUSTOS, BULACAN,Philippines",14.9562137,120.9510395,"XX42+FCM, Bustos, Bulacan, Philippines"
"BRGY BUISAN COVERED COURT,BUISAN, BUSTOS, BULACAN,Philippines",14.9064634,120.9173479,"Buisan, Bustos, Bulacan, Philippines"
"BRGY SAN PEDRO COVERED COURT,SAN PEDRO, BUSTOS, BULACAN,Philippines",14.9451717,120.9101738,"San Pedro, Bustos, Bulacan, Philippines"
"DRIVETHRU AT BUSTOS MUNICIPAL COMPOUND,MUNICIPAL COMPOUND,
POBLACION, BUSTOS, BULACAN,Philippines",14.9536433,120.9189172,"Bustos Municipal Hall, Bustos, Bulacan, Philippines"
"MUNICIPAL COVERED COURT,BALUNGAO, CALUMPIT, BULACAN,Philippines",14.9138999,120.7622933,"Balungao, Calumpit, Bulacan, Philippines"
"SAN MARCOS EVACUATION CENTER,SAN MARCOS, CALUMPIT, BULACAN,Philippines",14.8974918,120.7795909,"Purok 3, Calumpit, Bulacan, Philippines"
"CHU I,STO.ROSARIO, CITY OF MALOLOS, BULACAN,Philippines",14.8391469,120.8111278,"Santo Rosario, Malolos, Bulacan, Philippines"
"CHU II,LIANG, CITY OF MALOLOS, BULACAN,Philippines",14.8461237,120.8154306,"102 Primero de Junio, st, Malolos, Bulacan, Philippines"
"CHU III,BAGONG BAYAN, CITY OF MALOLOS, BULACAN,Philippines",14.840376,120.8346345,"Bagong Bayan, Malolos, Bulacan, Philippines"
"CHU IV,MATIMBO, CITY OF MALOLOS, BULACAN,Philippines",14.8100383,120.8412807,"Matimbo, Malolos, Bulacan, Philippines"
"CHU V,LUGAM, CITY OF MALOLOS, BULACAN,Philippines",14.8794171,120.8197436,"Lugam, Malolos, Bulacan, Philippines"
"CHU VI,BANGKAL, CITY OF MALOLOS,Philippines",14.8232513,120.8484588,"Bangkal, Malolos, Bulacan, Philippines"
"MEYCAUAYAN CITY HEALTH UNIT 1,BAYUGO, MEYCAUAYAN CITY, BULACAN,Philippines",14.7331299,120.9539294,"Bayugo, Meycauayan, Bulacan, Philippines"
"MEYCAUAYAN CITY HEALTH UNIT 2,POBLACION, MEYCAUAYAN CITY, BULACAN,Philippines",14.7301917,120.9589069,"2 Poblacion Rd, Valenzuela, Metro Manila, Philippines"
"MEYCAUAYAN CITY HEALTH UNIT 3,IBA, MEYCAUAYAN CITY, BULACAN,Philippines",14.7627072,120.9866062,"3 Iba Rd, Meycauayan, 3020 Metro Manila, Philippines"
"MEYCAUAYAN CITY HEALTH UNIT 4,MALHACAN, MEYCAUAYAN CITY, BULACAN,Philippines",14.7383891,120.9648802,"4 Malhacan Rd, Meycauayan, Bulacan, Philippines"
"MEYCAUAYAN CITY HEALTH UNIT 5,PEREZ, MEYCAUAYAN CITY, BULACAN,Philippines",14.7630925,121.0028444,"5 Perez Rd, Meycauayan, Bulacan, Philippines"
"MEYCAUAYAN CITY HEALTH UNIT 6,BANCAL, MEYCAUAYAN CITY, BULACAN,Philippines",14.7237573,120.9603839,"Bancal, Potrero, Meycauayan, Bulacan, Philippines"
"MEYCAUAYAN CITY HEALTH UNIT 7,PANDAYAN, MEYCAUAYAN CITY, BULACAN,Philippines",14.7493897,120.9655561,"Pandayan, Meycauayan, Bulacan, Philippines"
"MEYCAUAYAN CITY HEALTH UNIT 8,LAWA, MEYCAUAYAN CITY, BULACAN,Philippines",14.7306398,120.9782774,"8 Lawa Rd, Meycauayan, 3020 Metro Manila, Philippines"
"MEYCAUAYAN CITY HEALTH UNIT 9,SALUYSOY, MEYCAUAYAN CITY, BULACAN,Philippines",14.7456819,120.9551102,"9 Saluysoy Rd, Meycauayan, Bulacan, Philippines"
"MEYCAUAYAN CITY HEALTH UNIT 10,CAMALIG, MEYCAUAYAN CITY, BULACAN,Philippines",14.7724218,120.9905,"Camalig, Bulacan, Philippines"
"KAYPIAN BHS,KAYPIAN PH2A BRGY HALL,Philippines",14.8226924,121.0609641,"B35 L28 Ph2A, San Jose del Monte City, Bulacan, Philippines"
"POBLACION AND POBLACION 1 BHS,SAN JOSE KOOP UNTIL SEPT 29, 2022,Philippines",14.7896187,121.074414,"Q3QF+RQV, Quirino Hwy, San Jose del Monte City, 3023 Bulacan, Philippines"
"SAPANG PALAY PROPER BHS,SAPANG PALAY PROPER BHS,Philippines",14.8420945,121.0621749,"Sapang Palay, San Jose del Monte City, Bulacan, Philippines"
"BHS TUNGKONG MANGGA,brgy, tungkong manga,Philippines",14.7851681,121.0965637,"Tungkong Mangga, Novaliches, San Jose del Monte City, Bulacan, Philippines"
"BHS SAN MANUEL,Phs 5, pleasant hills, brgy. San manuel,Philippines",14.7801538,121.06934,"San Manuel, Novaliches, San Jose del Monte City, Bulacan, Philippines"
"BHS MAHARLIKA,Nayon lourdes 2, brgy maharlika,Philippines",14.6335696,120.9969525,"Maharlika, Santa Mesa Heights, Quezon City, Metro Manila, Philippines"
"BHS GUMAOC EAST,brgy. gumaoc,Philippines",14.7991971,121.0677319,"Q3X9+M3H, Gumaok Main Rd, San Jose del Monte City, 3023 Bulacan, Philippines"
"BHS GUMAOC CENTRAL,Blk 6 gumaoc central,Philippines",14.7998435,121.0651116,"Blk 8 gumaok central city of san jose del monte bulacan SAN JOSE DEL MONTE BULCAN, San Jose del Monte City, 3023 Bulacan, Philippines"
"BHS CIUDAD REAL,Blk10 lot22 parkway avenue, corner a, mabini st. Phs2a, brgy. Ciudad real,Philippines",12.879721,121.774017,Philippines
"BHS GUMAOC WEST,Brgy. Hall Blk 12, gumaoc west,Philippines",14.7997736,121.0602716,"Q3X6+W42, Gumaok Main Rd, San Jose del Monte City, Bulacan, Philippines"
"Dulong Bayan Bhs,Sitio Ibabaw, Dulong Bayan,Philippines",14.4475859,120.9374332,"Dulong Bayan, Bacoor, Cavite, Philippines"
"Guijo Bhs,B3 L28 Phase E F-Homes, Guijo,Philippines",12.879721,121.774017,Philippines
"Mulawin BHS,B5 L1 & 2 Phase E, F-Homes , Mulawin,Philippines",12.879721,121.774017,Philippines
"Narra BHS,Phase O, F- Homes, Narra,Philippines",9.2506301,118.3461948,"Narra, Palawan, Philippines"
"Yakal BHS,B7 Phase K, F-Homes, Yakal,Philippines",12.879721,121.774017,Philippines
"Minuyan Proper BHS,Minuyan Proper Annex , kellen,Philippines",14.8451619,121.0936983,"Minuyan Proper, Bulacan, Philippines"
"Towerville Main Health Center,Phase 1A Towerville Minuyan Proper,Philippines",14.8382407,121.0896211,"1450'18.9""N 12105'23., Blk. 0, General Santos City, South Cotabato, Philippines"
"Towerville Satellite BHS,Phase 4B Towerville Minuyan Proper,Philippines",14.8451619,121.0936983,"Minuyan Proper, Bulacan, Philippines"
"Sto.Cristo BHS,Brgy. Sto. Cristo,Philippines",14.9284152,121.031085,"Sto. Cristo St, Angat, Bulacan, Philippines"
"Towerville Sto. Cristo BHS,Malabon Towerville Sto Cristo,Philippines",14.6541524,121.0004388,"Sto. Cristo St, A. Bonifacio, Quezon City, Metro Manila, Philippines"
"CHC VI MAIN CENTER,AUSTRALIA ST HARMONY HILLS,Philippines",12.879721,121.774017,Philippines
"HARMONY HILLS BHS,CAMBODIA ST HARMONY HILLS,Philippines",14.7885084,121.0297317,"Q2QH+CV5, Harmony Hills, San Jose del Monte City, Bulacan, Philippines"
"PABAHAY PHASE 1,PHASE 1 PABAHAY 2000,Philippines",14.7929928,121.0352986,"B6 L9 S16 P2 Pabahay 2000, San Jose del Monte City, Bulacan, Philippines"
"PABAHAY PAHSE 2,PHASE 2 PABAHAY 2000,Philippines",14.7929928,121.0352986,"B6 L9 S16 P2 Pabahay 2000, San Jose del Monte City, Bulacan, Philippines"
"MELODY BHS,MELODY PLAINS SUBD,,Philippines",14.7956954,121.0338568,"Melody Plains Ave, San Jose del Monte City, Bulacan, Philippines"
"BHS - KAYBANBAN,PUROK 1 , IGAY ROAD, BRGY KAYBANBAN,Philippines",14.8150374,121.0745612,"#1 Igay Rd, Sto.Cristo, San Jose del Monte City, 3023 Bulacan, Philippines"
"BHS SAN ROQUE,ZONE 1 , BRGY SAN ROQUE,Philippines",14.6153646,121.063608,"San Roque, Cubao, Quezon City, Metro Manila, Philippines"
"BHS PARADISE 3,AREA A1 , BRGY PARADISE 3,Philippines",18.2614658,121.9938739,"Barangay Paradise, Gonzaga, Cagayan, Philippines"
"BHS SAN ISIDRO,PUROK 2, BRGY SAN ISIDRO,Philippines",13.2285261,123.7689559,"6QH9+R75, Santo Domingo, Albay, Philippines"
"MINUYAN IV COVERED COURT,BRGY. MINUYAN IV,Philippines",14.8509055,121.0704148,"Minuyan IV, San Jose del Monte City, Bulacan, Philippines"
"BHS CHC 4,ROTATION,Philippines",12.879721,121.774017,Philippines
"Graceville main BHS,BRGY. HALL,Philippines",12.879721,121.774017,Philippines
"Nha Graceville BHS,PHASE 6A TOWERVILLE 6 BRGY GRACEVILLE,Philippines",14.8153692,121.0749416,"PHASE 6A, 6 Towerville Rd, San Jose del Monte City, Bulacan, Philippines"
"Dela Costa 3 BHS,PHASE2 COMMUNITY CENTER DLC3,Philippines",12.879721,121.774017,Philippines
"Gaya Gaya Main BHS,MARCELA VILLAGE COVERED COURT,Philippines",14.7965121,121.0530943,"Marcela Village, San Jose del Monte City, Bulacan, Philippines"
"Nha Gaya Gaya BHS,PHASE 6B TOWERVILLE BRGY. GAYA GAYA,Philippines",14.7825632,121.0485263,"Blk 22 lot 10 ph6g towerville, San Jose del Monte City, Bulacan, Philippines"
"Pakwanan BHS,Phase 6G TOWERVILLE BRGY. GAYA GAYA,Philippines",14.7825632,121.0485263,"Blk 22 lot 10 ph6g towerville, San Jose del Monte City, Bulacan, Philippines"
"Toyota B HS,TOYOTA VILLAGE,Philippines",12.879721,121.774017,Philippines
"MUZON PROPER BHS,SARMIENTO HOMES BRGY.MUZON,Philippines",14.8037997,121.0343604,"Sarmiento Homes, Sarmiento Dr, Muzon, San Jose del Monte City, 3023 Bulacan, Philippines"
"PARTIDA BHS,VILLA MUZON BRGY.MUZON,Philippines",14.8037997,121.0343604,"Sarmiento Homes, Sarmiento Dr, Muzon, San Jose del Monte City, 3023 Bulacan, Philippines"
"BHS-SJDMHTS P1,SJDMHTS PHASE1 bgry. muzon,Philippines",14.5439511,121.1442807,"Muzon, Taytay, 1920 Rizal, Philippines"
"BHS-SJDMHTS P2,SJDMHTS PHASE2 brgy. muzon,Philippines",14.5439511,121.1442807,"Muzon, Taytay, 1920 Rizal, Philippines"
"SM SAN JOSE DEL MONTE,QUIRINO HWY, BRGY. TUNGKONG MANNGA, SJDM BULACAN,Philippines",14.7861909,121.0750876,"Quirino Hwy, San Jose del Monte City, 3023 Bulacan, Philippines"
"STARMALL SAN JOSE DEL MONTE,QUIRINO HWY, BRGY. KAYPIAN, SJDM BULACAN,Philippines",14.8149407,121.0717055,"Quirino Hwy, San Jose del Monte City, Bulacan, Philippines"
"Carissa 1A,carissa 1 covered court,Philippines",14.8280795,121.0693195,"R3HC+P53, San Jose del Monte City, Bulacan, Philippines"
"Carissa 6,carissa 6 covered court,Philippines",12.879721,121.774017,Philippines
"SAN MARTIN II COVERED COURT,BRGY. SAN MARTIN II,Philippines",14.8623035,121.0554012,"V364+W5C, San Jose del Monte City, Bulacan, Philippines"
"SANTA CRUZ II COVERED COURT,BRGY. SANTA CRUZ II,Philippines",14.635375,121.0198918,"Santa Cruz, Quezon City, Metro Manila, Philippines"
"SAN RAFAEL III COVERED COURT,BRGY. SAN RAFAEL III,Philippines",14.4381975,120.8771673,"San Rafael III, Noveleta, Cavite, Philippines"
"DRT RURAL HEALTH UNIT,PULONG SAMPALOC, DONA REMEDIOS TRINIDAD, BULACAN,Philippines",14.9620055,121.0617797,"Brgy, X366+MMP, Do?a Remedios Trinidad, Bulacan, Philippines"
"BRGY. PULONG SAMPALOC COVERED COURT,PULONG SAMPALOC, DONA REMEDIOS TRINIDAD, BULACAN,Philippines",14.9805955,121.0719266,"X3JC+6QM, Do?a Remedios Trinidad, Bulacan, Philippines"
"BRGY. CAMACHILE COVERED COURT,CAMACHILE, DONA REMEDIOS TRINIDAD, BULACAN,Philippines",14.9805955,121.0719266,"X3JC+6QM, Do?a Remedios Trinidad, Bulacan, Philippines"
"BRGY. BAYABAS COVERED COURT,BAYABAS, DONA REMEDIOS TRINIDAD, BULACAN,Philippines",14.9475299,121.2569138,"Bayabas, Do?a Remedios Trinidad, Bulacan, Philippines"
"BRGY. SAPANG BULAC COVERED COURT,SAPANG BULAC, DONA REMEDIOS TRINIDAD, BULACAN,Philippines",15.0214729,121.0986176,"23FX+28R, Do?a Remedios Trinidad, Bulacan, Philippines"
"DRT MUNICIPAL COVERED COURT,PULONG SAMPALOC, DONA REMEDIOS TRINIDAD, BULACAN,Philippines",14.9805955,121.0719266,"X3JC+6QM, Do?a Remedios Trinidad, Bulacan, Philippines"
"BRGY. TALBAK COVERED COURT,TALBAK, DONA REMEDIOS TRINIDAD, BULACAN,Philippines",15.0815426,121.0908329,"Talbak, Do?a Remedios Trinidad, Bulacan, Philippines"
"BRGY. CAMACHIN COVERED COURT,CAMACHIN, DONA REMEDIOS TRINIDAD, BULACAN,Philippines",15.0900356,121.2397438,"Camachin, Do?a Remedios Trinidad, Bulacan, Philippines"
"BRGY. KABAYUNAN COVERED COURT,KABAYUNAN, DONA REMEDIOS TRINIDAD, BULACAN,Philippines",15.1249901,121.1057392,"44F4+X7X, Unnamed Road, Do?a Remedios Trinidad, Bulacan, Philippines"
"BRGY. KALAWAKAN PROPER COVERED COURT,Brgy. KALAWAKAN, DONA REMEDIOS TRINIDAD, BULACAN,Philippines",14.9805955,121.0719266,"X3JC+6QM, Do?a Remedios Trinidad, Bulacan, Philippines"
"SITIO KALAYAKAN COVERED COURT,Sitio Kalayakan Brgy. KALAWAKAN, DONA REMEDIOS TRINIDAD, BULACAN,Philippines",15.2077138,121.0829779,"635M+35Q, San Miguel, Bulacan, Philippines"
"GUIGUINTO MUNICIPAL ATHLETHIC AND CULTURAL CENTER,POBLACION GUIGUINTO BULACAN,Philippines",14.8284196,120.8793202,"Poblacion, Guiguinto, Bulacan, Philippines"
"MUNICIPAL OVAL,POBLACION GUIGUINTO BULACAN,Philippines",14.8257909,120.8785625,"RVGH+8C8 Guiguinto Municipal Oval, Unnamed Road, Guiguinto, Bulacan, Philippines"
"WALTER MART GUIGUINTO,ILANG-ILANG GUIGUINTO BULACAN,Philippines",14.8283333,120.8737841,"2, Guiguinto, 3015 Bulacan, Philippines"
"HAGONOY EVACUATION CENTER,Sto. Nino Poblacion, Hagonoy Bulacan,Philippines",14.8379438,120.7382237,"Sto. Nino, Hagonoy, Bulacan, Philippines"
"SM CITY MARILAO,3019 MC ARTHUR HIGH WAY IBAYO MARILAO, BULACAN,Philippines",14.753954,120.9556532,"3019 MacArthur Hwy, Marilao, Bulacan, Philippines"
"PRENZA NATIONAL HIGH SCHOOL,M. VILLARICA RD. PRENZA 1 MARILAO, BULACAN,Philippines",14.7834019,120.9832012,"QXMM+978, M. Villarica Rd, Marilao, Bulacan, Philippines"
"METROGATE-HERITAGE HOMES COVERED COURT,METROGATE 2 PHASE 2 LOMA DE GATO MARILAO, BULACAN,Philippines",14.7731092,121.0183042,"Q2F9+68V, Meycauayan, Metro Manila, Philippines"
"HARMONY HILLS 2 COVERED COURT,HARMONY HILLS 2 LOMA DE GATO MARILAO, BULACAN,Philippines",14.7862697,121.0234049,"Harmony Hills 2, Marilao, Bulakan, Philippines"
"MARILAO RURAL HEALTH UNIT 1,MUNICIPAL ANNEX BLDG. PATUBIG MARILAO, BULACAN,Philippines",14.7765807,120.9590772,"Patubig, Marilao, Bulacan, Philippines"
"MARILAO RURAL HEALTH UNIT 2,SAN MIGUEL ST. POBLACION 1 MARILAO, BULACAN,Philippines",14.7563499,120.949046,"2 San Miguel St, Marilao, Bulacan, Philippines"
"LOMA DE GATO HEALTH CENTER,POOK UNITED LOMA DE GATO MARILAO, BULACAN,Philippines",14.78975,121.0134406,"Loma de Gato, Novaliches, Marilao, Bulacan, Philippines"
"STA. ROSA 1 HEALTH CENTER,VILLARICA ROAD STA. ROSA 1 MARILAO, BULACAN,Philippines",14.7723567,120.9638745,"QXC7+WGX Brgy Sta Rosa 1, M. Villarica Rd, Marilao, Bulacan, Philippines"
"PRENZA 2 HEALTH CENTER,ST. EMMANUEL SUBDIVISION POBLACION PRENZA 2 MARILAO, BULACAN,Philippines",14.7829016,120.9868612,"blk 4 lot 11, St. Emmanuel Homes Subdivision, Marilao, 3019 Bulacan, Philippines"
"STA. ROSA 2 HEALTH CENTER,CENTRO STA. ROSA 2 MARILAO, BULACAN,Philippines",14.7829459,120.970513,"QXMC+56C, Marilao, Bulacan, Philippines"
"PRENZA 1 HEALTH CENTER,ARCEGA ST. PRENZA 1 MARILAO, BULACAN,Philippines",14.7454554,120.9595404,"PXW5+5RM, Unnamed Road, Meycauayan, Bulacan, Philippines"
"TABING-ILOG HEALTH CENTER,NATIVIDAD ST. TABING-ILOG MARILAO, BULACAN,Philippines",14.7651929,120.9486592,"Natividad St, Marilao, Bulacan, Philippines"
"ABANGAN NORTE HEALTH CENTER,PAMA ST. MA. SOCORRO SUBDIVISION ABANGAN NORTE MARILAO, BULACAN,Philippines",14.7730094,120.9416698,"Maria Socorro, Marilao, Bulacan, Philippines"
"ABANGAN SUR HEALTH CENTER,GONZALES SUBDIVISION ABANGAN SUR MARILAO, BULACAN,Philippines",14.7653285,120.9434871,"Abangan Sur, Marilao, Bulacan, Philippines"
"LIAS HEALTH CENTER,LIAS ROAD MARILAO, BULACAN,Philippines",14.7611381,120.9640945,"Lias Rd, Lias, Marilao, Bulacan, Philippines"
"LAMBAKIN NV4B HEALTH CENTER,BLK 64 LOT 4 NORTHVILLE 4B LAMBAKIN MARILAO, BULACAN,Philippines",14.7709789,120.9689938,"QXC9+9HX, Marilao, Bulacan, Philippines"
"LAMBAKIN NV4A HEALTH CENTER,NV4A LAMBAKIN MARILAO, BULACAN,Philippines",14.7722848,120.9764106,"Lambakin, Marilao, Bulacan, Philippines"
"LAMBAKIN CENTRO HEALTH CENTER,CENTRO LAMBAKIN MARILAO, BULACAN,Philippines",14.7659477,120.9720582,"Mario Santiago Rd, Marilao, 3019 Bulacan, Philippines"
"NORZAGARAY COLLEGE AUDIOVISUAL ROOM,MUNICIPAL COMPOUND, BRGY. POBLACION, NORZAGARAY, BULACAN,Philippines",14.9142186,121.0478433,"Poblacion, Bulacan, Philippines"
"NORZAGARAY MOBILE VACCINATION,MUNICIPAL COMPOUND, BRGY. POBLACION, NORZAGARAY, BULACAN,Philippines",14.5656805,121.0320766,"Poblacion, Makati, Metro Manila, Philippines"
"RURAL HEALTH UNIT 1 POBLACION,A. PAYUMO ST., BRGY. POBLACION, NORZAGARAY, BULACAN,Philippines",14.9100619,121.0486424,"A. Payumo, Norzagaray, Bulacan, Philippines"
"RURAL HEALTH UNIT 2 MINUYAN BARANGAY HALL,BRGY. MINUYAN, NORZAGARAY, BULACAN,Philippines",14.8939264,121.0621749,"Minuyan, Norzagaray, Bulacan, Philippines"
"RURAL HEALTH UNIT 3 BARANGAY HALL TIGBE COVERED COURT,CROSSING TIGBE, NORZAGARAY, BULACAN,Philippines",14.8669058,121.0377563,"V27Q+VH6, Norzagaray San Jose Rd, Norzagaray, Bulacan, Philippines"
"OBANDO DISTRICT HOSPITAL,JP Rizal St. ONHS compound, Paliwas, Obando, Bulacan,Philippines",14.712609,120.9336312,"PW7M+2FR, ONHS Street, Obando, Bulacan, Philippines"
"BINUANGAN COVERED COURT,Binuangan, Obando, Bulacan,Philippines",14.7162889,120.9059636,"PW84+GCX, Obando, Bulacan, Philippines"
"PANDI SPORTS COMPLEX/MHO BUILDING,Poblacion Pandi Bulacan,Philippines",14.8673592,120.958098,"Pandi Sport Complex, Pandi, Bulacan, Philippines"
"PAOMBONG RURAL HEALTH UNIT I,Poblacion, Paombong, Bulacan,Philippines",14.8342052,120.7874311,"Poblacion, Paombong, Bulacan, Philippines"
"RURAL HEALTH UNIT I PLARIDEL,POBLACION ,PLARIDEL BULACAN,Philippines",14.8855728,120.8626374,"Poblacion, Plaridel, Bulacan, Philippines"
"SM CENTER PULILAN,STO. CRISTO, PULILAN, BULACAN,Philippines",14.8988514,120.869735,"Plaridel-Pulilan Diversion Rd, Pulilan, 3005 Bulacan, Philippines"
"RURAL HEALTH UNIT I,POBLACION, PULILAN, BULACAN,Philippines",14.8896724,120.8647628,"A.C Reyes, Plaridel, Bulacan, Philippines"
"BULACAN AGRICULTURAL STATE COLLEGE GYM,PINAOD, SAN ILDEFONSO, BULACAN,Philippines",15.0863288,120.9732917,"Pinaod, San Ildefonso, Bulacan, Philippines"
"ONE SAN ILDEFONSO MALL,POBLACION,SAN ILDEFONSO BULACAN,Philippines",15.0797509,120.9400972,"3WHR+W25, Cagayan Valley Road, Poblacion, San Ildefonso, Bulacan, Philippines"
"RHU I POBLACION,POBLACION,SAN ILDEFONSO BULACAN,Philippines",15.0809116,120.9489091,"Poblacion, San Ildefonso, Bulacan, Philippines"
"RHU II PINAOD,PINAOD, SAN ILDEFONSO, BULACAN,Philippines",16.2248325,120.5029494,"MacArthur Hwy, Philippines"
"RHU III MALIPAMPANG,MALIPAMPANG, SAN ILDEFONSO,BULACAN,Philippines",15.0542814,120.9446058,"Malipampang, San Ildefonso, Bulacan, Philippines"
"MUNICIPAL SPORTS COMPLEX (MOTORPOOL),Poblacion, San Miguel, Bulacan,Philippines",15.1419742,120.9747258,"Poblacion, San Miguel, Bulacan, Philippines"
"RHU II Sta Rita Old,sta rita old, San Miguel Bulacan,Philippines",15.166425,121.0105733,"San Miguel, Bulacan, Philippines"
"RHU III Salacot,ZONE 4 SALACOT SAN MIGUEL BULACAN,Philippines",15.1869167,120.9596014,"Salacot, San Miguel, Bulacan, Philippines"
"RHU IV Buliran,Buliran san miguel bulacan,Philippines",15.167954,120.9919339,"Buliran, San Miguel, Bulacan, Philippines"
"CAMP TECSON (FSRR),Tartaro, San Miguel, Bulacan,Philippines",15.1758108,121.0471267,"52GW+8VC, San Miguel, Bulacan, Philippines"
"VICTORY COLISEUM,Municipal Compound Sampaloc, San Rafael, Bulacan,Philippines",14.9817539,120.9281409,"XWJH+P72, San Rafael, Bulacan, Philippines"
"RHU 1 Sampaloc,Municipal Compound Sampaloc, San Rafael, Bulacan,Philippines",14.9571871,120.8993893,"XV4X+VQG Municipal Compound, Benigno S. Aquino Ave, Baliwag, 3006 Bulacan, Philippines"
"RHU 2 Maguinao,Maguinao, San Rafael, Bulacan,Philippines",14.8614079,120.8083326,"MacArthur Hwy, Bulacan, Philippines"
"RHU 3 BIRTHING STATION,Poblacion, San Rafael, Bulacan,Philippines",14.9567165,120.9638235,"XX47+MGP, Mabini, San Rafael, Bulacan, Philippines"
"San Gabriel Vaccination Site,San Gabriel Highway near San Gabriel High School,Philippines",34.0961111,-118.1058333,"San Gabriel, CA, USA"
"RHU II Sto Tomas,Sto Tomas at the back of Day Care,Philippines",14.1262406,121.1382576,"Santo Tomas, Batangas, Philippines"
"RHU III Pulong Buhangin,Pulong Buhangin City land near Barangay Hall,Philippines",14.8780615,120.9989043,"City Land Dr, Santa Maria, Bulacan, Philippines"
"RHU IV Caypombo,Tibagan ST. Caypombo,Philippines",14.8508677,120.9786303,"Caypombo, Santa Maria, Bulacan, Philippines"
"RHU V Catmon,Binayuyo, Catmon near Barangay Hall,Philippines",14.8102625,121.0007473,"R262+475, Santa Maria, Bulacan, Philippines"
"RHU VI Tumana,Kamatis St. Near Day Care,Philippines",14.8150312,120.976462,"134 R Mercado St, Santa Maria, 3022 Bulacan, Philippines"
"KAYPIAN BHS,KAYPIAN PH2A BRGY HALL,Philippines",14.8226924,121.0609641,"B35 L28 Ph2A, San Jose del Monte City, Bulacan, Philippines"
"POBLACION AND POBLACION 1 BHS,SAN JOSE KOOP UNTIL SEPT 29, 2022,Philippines",14.7896187,121.074414,"Q3QF+RQV, Quirino Hwy, San Jose del Monte City, 3023 Bulacan, Philippines"
"SAPANG PALAY PROPER BHS,SAPANG PALAY PROPER BHS,Philippines",14.8420945,121.0621749,"Sapang Palay, San Jose del Monte City, Bulacan, Philippines"
"BHS TUNGKONG MANGGA,brgy, tungkong manga,Philippines",14.7851681,121.0965637,"Tungkong Mangga, Novaliches, San Jose del Monte City, Bulacan, Philippines"
"BHS SAN MANUEL,Phs 5, pleasant hills, brgy. San manuel,Philippines",14.7801538,121.06934,"San Manuel, Novaliches, San Jose del Monte City, Bulacan, Philippines"
"BHS MAHARLIKA,Nayon lourdes 2, brgy maharlika,Philippines",14.6335696,120.9969525,"Maharlika, Santa Mesa Heights, Quezon City, Metro Manila, Philippines"
"BHS GUMAOC EAST,brgy. gumaoc,Philippines",14.7991971,121.0677319,"Q3X9+M3H, Gumaok Main Rd, San Jose del Monte City, 3023 Bulacan, Philippines"
"BHS GUMAOC CENTRAL,Blk 6 gumaoc central,Philippines",14.7998435,121.0651116,"Blk 8 gumaok central city of san jose del monte bulacan SAN JOSE DEL MONTE BULCAN, San Jose del Monte City, 3023 Bulacan, Philippines"
"BHS CIUDAD REAL,Blk10 lot22 parkway avenue, corner a, mabini st. Phs2a, brgy. Ciudad real,Philippines",12.879721,121.774017,Philippines
"BHS GUMAOC WEST,Brgy. Hall Blk 12, gumaoc west,Philippines",14.7997736,121.0602716,"Q3X6+W42, Gumaok Main Rd, San Jose del Monte City, Bulacan, Philippines"
"Dulong Bayan,Sitio Ibabaw, Dulong Bayan,Philippines",14.4475859,120.9374332,"Dulong Bayan, Bacoor, Cavite, Philippines"
"Guijo,B3 L28 Phase E F-Homes, Guijo,Philippines",12.879721,121.774017,Philippines
